monitor_point_code,monitor_point_name,province_name,city_name,county_name,monitor_point_type,scale,warning_level,longitude,latitude,threaten_population,threaten_residents,threaten_assets,avg_slope,lithology,induce_factors,current_status,is_hidden_danger
140821000014,屈村1#崩塌,山西省,运城市,临猗县,崩塌,小,蓝色,110.399916,35.219025,47.0,12.0,51.0,,,"地震,冻融,切坡,加载",,0
140821000015,屈村2#崩塌,山西省,运城市,临猗县,崩塌,未分级,未定级,110.399638,35.224138,0.0,0.0,0.0,,,,,0
140821000031,西仪村2#崩塌,山西省,运城市,临猗县,崩塌,大,黄色,110.367686,35.061583,82.0,40.0,130.0,,,,,0
140821000032,西仪村3#崩塌,山西省,运城市,临猗县,崩塌,未分级,未定级,110.367425,35.058416,0.0,0.0,0.0,,,,,0
140830000122,古伦村洼里组潜在崩塌,山西省,运城市,芮城县,崩塌,未分级,未定级,110.325777,34.710861,0.0,0.0,0.0,,,,,0
140830000124,七里村七里组2号潜在崩塌,山西省,运城市,芮城县,崩塌,未分级,未定级,110.3415,34.70975,0.0,0.0,0.0,,,,,0
140830010002,南辿村张家山组潜在滑坡,山西省,运城市,芮城县,滑坡,大,未定级,110.50125,34.77575,51.0,32.0,670.0,,,"降雨,人为因素,其他",,0
140830010003,南辿村李家山组滑坡,山西省,运城市,芮城县,滑坡,大,橙色,110.51275,34.767888,172.0,43.0,548.0,,,,,0
140830010005,前坪村前坪组潜在滑坡,山西省,运城市,芮城县,滑坡,中,蓝色,110.552138,34.759277,91.0,21.0,100.0,,,降雨,,0
140830010006,前坪村庙胡同组潜在滑坡,山西省,运城市,芮城县,滑坡,中,未定级,110.5467,34.7533,54.0,12.0,50.2,,,降雨,,0
140830020013,七里村七里组崩塌,山西省,运城市,芮城县,崩塌,小,蓝色,110.338055,34.708333,37.0,10.0,20.0,,,"降雨,人为因素,其他",,0
140830020014,七里村七里舞台附近崩塌,山西省,运城市,芮城县,崩塌,未分级,未定级,110.335913,34.708055,0.0,0.0,0.0,,,,,0
140830020015,杨涧村见帝组潜在崩塌,山西省,运城市,芮城县,崩塌,小,未定级,110.460416,34.650283,32.0,11.0,7.0,,,"降雨,人为因素,其他",,0
140830020016,杜家村杜西组潜在崩塌,山西省,运城市,芮城县,崩塌,小,蓝色,110.599666,34.690611,25.0,10.0,97.5,,,"降雨,人为因素,其它",,0
140830020023,七里村一组崩塌,山西省,运城市,芮城县,崩塌,未分级,未定级,110.337611,34.710333,0.0,0.0,0.0,,,,,0
140830020026,匼河村1号崩塌隐患点,山西省,运城市,芮城县,崩塌,未分级,未定级,110.274861,34.665861,0.0,0.0,0.0,,,,,0
140830020027,大王镇斜坡村委会芮城县大王镇斜坡村前坪村庙胡同组崩塌隐患点,山西省,运城市,芮城县,崩塌,未分级,未定级,110.55,34.752972,0.0,0.0,0.0,,,,,0
140830020042,阳城镇孙涧村委会芮城县阳城镇孙涧村封涧组崩塌隐患点,山西省,运城市,芮城县,崩塌,中,未定级,110.499711,34.650008,35.0,14.0,135.0,,,,,0
140830020078,观后村韩卓组崩塌隐患点,山西省,运城市,芮城县,崩塌,小,橙色,110.525465,34.699707,43.0,15.0,36.0,,,,,0
140830020087,杜家庄村石家咀崩塌隐患点,山西省,运城市,芮城县,崩塌,小,黄色,110.603286,34.654622,123.0,35.0,143.0,,,"地震,降雨",,0
140830020101,李涧村牛家坡组一组崩塌,山西省,运城市,芮城县,崩塌,未分级,红色,110.536944,34.646944,0.0,0.0,0.0,,,,,0
140881000001,城西办张华村北坡组崩塌,山西省,运城市,永济市,崩塌,小,蓝色,110.400555,34.881111,53.0,12.0,120.0,,,,,0
140881000004,蒲州镇西厢村崩塌,山西省,运城市,永济市,崩塌,中,蓝色,110.325277,34.843888,42.0,15.0,100.0,,,,,0
140881000005,蒲州镇花园村崩塌,山西省,运城市,永济市,崩塌,中,未定级,110.324444,34.841111,71.0,26.0,300.0,,,,,0
140881000006,蒲州镇西厢村旅游公路北侧崩塌,山西省,运城市,永济市,崩塌,中,蓝色,110.329722,34.844722,46.0,18.0,100.0,,,"地震,降雨",,0
141032000006,望海寺乡李家垣村委会永和县望海寺乡李家垣村贺家腰村东100米处崩塌,山西省,临汾市,永和县,崩塌,小,蓝色,110.434444,36.776111,23.0,10.0,60.0,,,,,0
141032000007,山西省永和县望海寺乡贺家河村崩塌1#,山西省,临汾市,永和县,崩塌,未分级,未定级,110.436388,36.79,0.0,0.0,0.0,,,,,0
141032000026,山西省永和县望海寺乡枣山只村崩塌,山西省,临汾市,永和县,崩塌,未分级,未定级,110.441472,36.807277,0.0,0.0,0.0,,,,,0
141032000134,山西省永和县望海寺乡冯家洼村崩塌,山西省,临汾市,永和县,崩塌,未分级,黄色,110.493333,36.755,0.0,0.0,0.0,,,,,0
141032029261,望海寺乡李家垣村委会永和县望海寺乡李家垣村贺家腰村东100米处崩塌,山西省,临汾市,永和县,崩塌,未分级,蓝色,110.434444,36.776111,0.0,0.0,0.0,,,,,0
141124020053,八堡村小河岔沟崩塌,山西省,吕梁市,临县,崩塌,中,未定级,110.518888,38.130833,40.0,12.0,1104.0,,,,,0
141124020074,乔家圪台2号崩塌,山西省,吕梁市,临县,崩塌,中,未定级,110.5775,38.036111,10.0,3.0,10.0,,,,,0
141124020084,乔家圪台3号崩塌,山西省,吕梁市,临县,崩塌,小,未定级,110.578427,38.038184,10.0,3.0,18.0,,,,,0
141126000174,陈家腰村崩塌隐患点,山西省,吕梁市,石楼县,崩塌,未分级,蓝色,110.508055,37.010472,0.0,0.0,0.0,,,,,0
141126000278,张家坡村崩塌隐患点,山西省,吕梁市,石楼县,崩塌,小,蓝色,110.464083,37.015888,12.0,3.0,85.0,,,,,0
141126000287,前山村崩塌隐患点,山西省,吕梁市,石楼县,崩塌,小,未定级,110.452666,36.982916,16.0,3.0,8.5,,,,,0
141126000290,和合村崩塌隐患点,山西省,吕梁市,石楼县,崩塌,未分级,未定级,110.524666,36.929777,0.0,0.0,0.0,,,,,0
141126000294,豆坪村崩塌隐患点,山西省,吕梁市,石楼县,崩塌,小,未定级,110.520944,36.955916,11.0,5.0,2.5,,,,,0
141126000297,寺山村崩塌隐患点2,山西省,吕梁市,石楼县,崩塌,小,未定级,110.489027,36.927944,12.0,3.0,3.0,,,,,0
141126000310,铁头村崩塌隐患点,山西省,吕梁市,石楼县,崩塌,未分级,未定级,110.510055,36.929722,0.0,0.0,0.0,,,,,0
141126020034,北庄村崩塌隐患点,山西省,吕梁市,石楼县,崩塌,大,蓝色,110.460833,36.984611,29.0,10.0,13.0,,,"降雨,人为因素",,0
141126027298,和合乡铁头村委会石楼县和合乡铁头村寺山村崩塌隐患点,山西省,吕梁市,石楼县,崩塌,未分级,未定级,110.49025,36.929525,0.0,0.0,0.0,,,,,0
141126027887,辛关镇张家坡村委会石楼县辛关镇张家坡村崩塌隐患点,山西省,吕梁市,石楼县,崩塌,未分级,蓝色,110.466444,37.015306,0.0,0.0,0.0,,,,,0
622926010382,那勒寺镇刘家沟沟口东侧滑坡,甘肃省,临夏回族自治州,东乡族自治县,滑坡,未分级,未定级,103.47396,35.551329,120.0,0.0,640.0,,,"降雨,人为因素",,0
622926010393,百和乡王家川村五社滑坡,甘肃省,临夏回族自治州,东乡族自治县,滑坡,未分级,未定级,103.297838,35.589695,40.0,0.0,180.0,,,降雨,,0
622926010395,考勒乡三塬村滑坡,甘肃省,临夏回族自治州,东乡族自治县,滑坡,未分级,未定级,103.288917,35.852167,87.0,0.0,400.0,,,"降雨,人为因素",,0
622926010398,沿岭乡和平村漆土滑坡,甘肃省,临夏回族自治州,东乡族自治县,滑坡,未分级,黄色,103.44658,35.688117,50.0,0.0,300.0,,,降雨,,0
622926010400,柳树乡大仲家山村尕小塬社滑坡,甘肃省,临夏回族自治州,东乡族自治县,滑坡,未分级,未定级,103.260648,35.736249,60.0,0.0,300.0,,,降雨,,0
622926010412,百和乡达柴坪村7社滑坡,甘肃省,临夏回族自治州,东乡族自治县,滑坡,未分级,未定级,103.352188,35.555587,42.0,0.0,235.0,,,降雨,,0
622926010416,东源乡赵家村赵家社村道边坡滑坡,甘肃省,临夏回族自治州,东乡族自治县,滑坡,未分级,蓝色,103.347448,35.641957,45.0,0.0,240.0,,,降雨,,0
622926010417,东源乡赵家村丁家社马洒力哈家东南侧滑坡,甘肃省,临夏回族自治州,东乡族自治县,滑坡,未分级,未定级,103.346617,35.637168,45.0,0.0,240.0,,,降雨,,0
622926010419,考勒乡岘子村上湾社滑坡,甘肃省,临夏回族自治州,东乡族自治县,滑坡,未分级,未定级,103.336544,35.807057,30.0,0.0,150.0,,,降雨,,0
622926030050,拉砂沟,甘肃省,临夏回族自治州,东乡族自治县,泥石流,未分级,红色,103.627427,35.726728,2000.0,0.0,2000.0,,,"降雨,人为因素",,0
622926030051,砂沟,甘肃省,临夏回族自治州,东乡族自治县,泥石流,未分级,未定级,103.536988,35.792687,180.0,0.0,560.0,,,"降雨,人为因素",,0
622926030057,张尕拉沟,甘肃省,临夏回族自治州,东乡族自治县,泥石流,未分级,未定级,103.590405,35.772879,150.0,0.0,800.0,,,降雨,,0
622926030061,达板镇舀水村二社泥石流沟,甘肃省,临夏回族自治州,东乡族自治县,泥石流,未分级,未定级,103.602978,35.74116,200.0,0.0,1000.0,,,降雨,,0
622926030066,塔石沟,甘肃省,临夏回族自治州,东乡族自治县,泥石流,未分级,未定级,103.514997,35.83749,110.0,0.0,400.0,,,"降雨,人为因素",,0
622926030068,石拉泉沟,甘肃省,临夏回族自治州,东乡族自治县,泥石流,未分级,蓝色,103.53005,35.546547,560.0,0.0,4000.0,,,降雨,,0
622926030071,达板镇崔家沟泥石流,甘肃省,临夏回族自治州,东乡族自治县,泥石流,未分级,蓝色,103.690527,35.665314,300.0,0.0,1500.0,,,"地震,降雨,人为因素",,0
622926030072,黑儿坪沟,甘肃省,临夏回族自治州,东乡族自治县,泥石流,未分级,未定级,103.691369,35.65994,460.0,0.0,4600.0,,,"降雨,人为因素",,0
622926030073,老庄坪沟,甘肃省,临夏回族自治州,东乡族自治县,泥石流,未分级,未定级,103.715748,35.651717,150.0,0.0,500.0,,,"降雨,人为因素",,0
622926030074,果园乡果园村沟泥石流 ,甘肃省,临夏回族自治州,东乡族自治县,泥石流,未分级,未定级,103.687017,35.560333,560.0,0.0,3530.0,,,降雨,,0
622926030081,五家乡红庄沟泥石流 ,甘肃省,临夏回族自治州,东乡族自治县,泥石流,未分级,未定级,103.531281,35.556143,600.0,0.0,50000.0,,,降雨,,0
622926030083,那勒寺镇郭泥沟泥石流 ,甘肃省,临夏回族自治州,东乡族自治县,泥石流,未分级,未定级,103.429961,35.565071,800.0,0.0,2000.0,,,降雨,,0
622926030084,那勒寺镇达板空果园社龙土沟泥石流,甘肃省,临夏回族自治州,东乡族自治县,泥石流,未分级,未定级,103.412604,35.551254,520.0,0.0,800.0,,,"人为因素,降雨",,0
622926030090,达板镇砂子沟泥石流,甘肃省,临夏回族自治州,东乡族自治县,泥石流,未分级,未定级,103.672348,35.670899,500.0,0.0,1000.0,,,"地震,降雨,人为因素",,0
622926030093,大柴沟泥石流,甘肃省,临夏回族自治州,东乡族自治县,泥石流,未分级,红色,103.551009,35.789393,110.0,0.0,525.0,,,"降雨,人为因素",,0
622926030094,锁南镇白家沟泥石流,甘肃省,临夏回族自治州,东乡族自治县,泥石流,未分级,未定级,103.408736,35.659914,16.0,0.0,90.0,,,"降雨,人为因素",,0
622927000096,中咀岭乡中咀岭村十二社、二社不稳定斜坡,甘肃省,临夏回族自治州,积石山保安族东乡族撒拉族自治县,滑坡,未分级,未定级,102.9175,35.625278,97.0,0.0,500.0,,,降雨,,0
622927000107,郭干乡王家村六社滑坡,甘肃省,临夏回族自治州,积石山保安族东乡族撒拉族自治县,滑坡,未分级,未定级,103.006739,35.650967,44.0,0.0,180.0,,,降雨,,0
622927000120,中咀岭乡庙岭村二社1#不稳定斜坡,甘肃省,临夏回族自治州,积石山保安族东乡族撒拉族自治县,滑坡,未分级,红色,102.914336,35.634775,43.0,0.0,115.0,,,降雨,,0
622927000121,大河家镇牙虎崖滑坡 ,甘肃省,临夏回族自治州,积石山保安族东乡族撒拉族自治县,滑坡,未分级,黄色,102.861473,35.838458,341.0,0.0,1000.0,,,"地震,降雨,人为因素",,0
622927000131,居集镇业卜湾村四社不稳定斜坡,甘肃省,临夏回族自治州,积石山保安族东乡族撒拉族自治县,滑坡,未分级,未定级,102.88425,35.649528,43.0,0.0,180.0,,,降雨,,0
622927000137,柳沟乡袁家村四社不稳定斜坡,甘肃省,临夏回族自治州,积石山保安族东乡族撒拉族自治县,滑坡,未分级,未定级,102.868311,35.753642,100.0,0.0,627.0,,,"地震,降雨",,0
622927000148,安集斜坡,甘肃省,临夏回族自治州,积石山保安族东乡族撒拉族自治县,滑坡,未分级,橙色,103.004722,35.744722,45.0,0.0,400.0,,,降雨,,0
622927000150,阳山斜坡,甘肃省,临夏回族自治州,积石山保安族东乡族撒拉族自治县,滑坡,未分级,蓝色,102.834256,35.750292,20.0,0.0,200.0,,,"降雨,人为因素",,0
622927000155,石塬乡刘安村九家坪社斜坡,甘肃省,临夏回族自治州,积石山保安族东乡族撒拉族自治县,滑坡,未分级,橙色,102.824375,35.746403,35.0,0.0,500.0,,,降雨,,0
622927000161,郭干乡满陈家村三社不稳定斜坡,甘肃省,临夏回族自治州,积石山保安族东乡族撒拉族自治县,滑坡,未分级,未定级,103.006388,35.682222,151.0,0.0,1400.0,,,降雨,,0
622927000165,郭干乡王家村五社不稳定斜坡,甘肃省,临夏回族自治州,积石山保安族东乡族撒拉族自治县,滑坡,未分级,未定级,102.999831,35.656539,0.0,0.0,60.0,,,降雨,,0
622927000167,胡林家乡胡林家村李家山社滑坡,甘肃省,临夏回族自治州,积石山保安族东乡族撒拉族自治县,滑坡,未分级,蓝色,102.886222,35.702722,27.0,0.0,160.0,,,"地震,降雨",,0
622927000174,居集镇甘藏村三社不稳定斜坡,甘肃省,临夏回族自治州,积石山保安族东乡族撒拉族自治县,滑坡,未分级,黄色,102.913172,35.651117,48.0,0.0,160.0,,,降雨,,0
622927010123,积石山县癿藏镇阴洼滩村滑坡,甘肃省,临夏回族自治州,积石山保安族东乡族撒拉族自治县,滑坡,未分级,黄色,102.943067,35.582778,80.0,0.0,420.0,,,"地震,降雨",,0
622927010126,癿藏镇纳莫沟村四社滑坡,甘肃省,临夏回族自治州,积石山保安族东乡族撒拉族自治县,滑坡,未分级,未定级,102.920833,35.61,110.0,0.0,540.0,,,"地震,降雨",,0
622927010130,小关乡大寺村五社滑坡,甘肃省,临夏回族自治州,积石山保安族东乡族撒拉族自治县,滑坡,未分级,未定级,102.882408,35.594781,45.0,0.0,220.0,,,"地震,降雨",,0
622927010133,小关乡尕阴洼村六社1#、2#滑坡,甘肃省,临夏回族自治州,积石山保安族东乡族撒拉族自治县,滑坡,未分级,红色,102.904722,35.607778,45.0,0.0,220.0,,,"地震,降雨",,0
622927010149,癿藏镇杨家岭村三社2#滑坡,甘肃省,临夏回族自治州,积石山保安族东乡族撒拉族自治县,滑坡,未分级,未定级,102.969175,35.59445,22.0,0.0,90.0,,,降雨,,0
622927010159,小关乡吴家堡村八社滑坡,甘肃省,临夏回族自治州,积石山保安族东乡族撒拉族自治县,滑坡,未分级,未定级,102.928831,35.582181,15.0,0.0,85.0,,,降雨,,0
622927010161,小关乡吴家堡村九社1#滑坡,甘肃省,临夏回族自治州,积石山保安族东乡族撒拉族自治县,滑坡,未分级,黄色,102.924728,35.582503,40.0,0.0,180.0,,,"地震,降雨",,0
622927010167,小关乡吴家堡村九社2#滑坡,甘肃省,临夏回族自治州,积石山保安族东乡族撒拉族自治县,滑坡,未分级,黄色,102.923067,35.579192,52.0,0.0,260.0,,,"地震,降雨",,0
622927010180,居集镇居集村七社滑坡,甘肃省,临夏回族自治州,积石山保安族东乡族撒拉族自治县,滑坡,未分级,红色,102.932036,35.652928,105.0,0.0,300.0,,,降雨,,0
622927010182,居集镇业卜湾村六社滑坡,甘肃省,临夏回族自治州,积石山保安族东乡族撒拉族自治县,滑坡,未分级,未定级,102.889661,35.649197,40.0,0.0,195.0,,,降雨,,0
622927010192,安集乡杨家岭村阳洼山社滑坡,甘肃省,临夏回族自治州,积石山保安族东乡族撒拉族自治县,滑坡,未分级,蓝色,103.063611,35.747222,73.0,0.0,200.0,,,降雨,,0
622927010193,银川乡银川村庙上社滑坡 ,甘肃省,临夏回族自治州,积石山保安族东乡族撒拉族自治县,滑坡,未分级,蓝色,103.063809,35.670623,300.0,0.0,450.0,,,降雨,,0
622927010197,小关乡吴家堡村九社清真寺门前滑坡,甘肃省,临夏回族自治州,积石山保安族东乡族撒拉族自治县,滑坡,未分级,未定级,102.922222,35.580833,30.0,0.0,150.0,,,"地震,降雨",,0
622927010198,石塬乡刘安村对坡社滑坡,甘肃省,临夏回族自治州,积石山保安族东乡族撒拉族自治县,滑坡,未分级,蓝色,102.819125,35.742858,98.0,0.0,890.0,,,降雨,,0
622927010199,胡林家乡何家村小学门前滑坡,甘肃省,临夏回族自治州,积石山保安族东乡族撒拉族自治县,滑坡,未分级,蓝色,102.920139,35.692231,400.0,0.0,500.0,,,"降雨,人为因素",,0
622927010202,积石山县吹麻滩镇庙山公园滑坡,甘肃省,临夏回族自治州,积石山保安族东乡族撒拉族自治县,滑坡,未分级,未定级,102.869525,35.712547,46.0,0.0,135.0,,,降雨,,0
622927010215,石塬乡肖红坪村六社滑坡,甘肃省,临夏回族自治州,积石山保安族东乡族撒拉族自治县,滑坡,未分级,红色,102.807611,35.74445,55.0,0.0,200.0,,,降雨,,0
622927010229,胡林家乡胡林家村林家社滑坡,甘肃省,临夏回族自治州,积石山保安族东乡族撒拉族自治县,滑坡,未分级,蓝色,102.898472,35.708556,56.0,0.0,280.0,,,"地震,降雨",,0
622927010231,柳沟乡樊家沟村许家社许家滑坡,甘肃省,临夏回族自治州,积石山保安族东乡族撒拉族自治县,滑坡,未分级,蓝色,102.876667,35.783056,100.0,0.0,520.0,,,"地震,降雨",,0
622927010232,胡林家乡高关村毛家社滑坡,甘肃省,临夏回族自治州,积石山保安族东乡族撒拉族自治县,滑坡,未分级,未定级,102.913819,35.727222,50.0,0.0,240.0,,,"降雨,地震",,0
622927010233,柳沟乡樊家沟村七社滑坡,甘肃省,临夏回族自治州,积石山保安族东乡族撒拉族自治县,滑坡,未分级,未定级,102.883056,35.789167,25.0,0.0,135.0,,,"地震,降雨",,0
622927010234,关家川乡芦家庄村山庄社滑坡,甘肃省,临夏回族自治州,积石山保安族东乡族撒拉族自治县,滑坡,未分级,蓝色,102.956811,35.816878,90.0,0.0,400.0,,,降雨,,0
622927010235,中咀岭乡庙岭村三社滑坡,甘肃省,临夏回族自治州,积石山保安族东乡族撒拉族自治县,滑坡,未分级,蓝色,102.909725,35.632528,43.0,0.0,200.0,,,降雨,,0
622927010236,郭干乡郭干村三社滑坡,甘肃省,临夏回族自治州,积石山保安族东乡族撒拉族自治县,滑坡,未分级,未定级,102.989325,35.652331,30.0,0.0,120.0,,,降雨,,0
622927010237,银川乡工匠村阳洼白社滑坡,甘肃省,临夏回族自治州,积石山保安族东乡族撒拉族自治县,滑坡,未分级,未定级,103.077833,35.653525,45.0,0.0,400.0,,,降雨,,0
622927010238,居集镇甘藏村三社崩塌2,甘肃省,临夏回族自治州,积石山保安族东乡族撒拉族自治县,崩塌,未分级,红色,102.90725,35.649756,42.0,0.0,200.0,,,降雨,,0
622927020033,癿藏镇杨家岭村三社崩塌,甘肃省,临夏回族自治州,积石山保安族东乡族撒拉族自治县,崩塌,未分级,橙色,102.970486,35.595442,17.0,0.0,95.0,,,降雨,,0
622927020047,铺川乡张吧咀村咀头社斜坡,甘肃省,临夏回族自治州,积石山保安族东乡族撒拉族自治县,滑坡,未分级,未定级,103.037222,35.643888,50.0,0.0,496.0,,,"降雨,地震",,0
622927030016,石塬乡三二家村石家河泥石流,甘肃省,临夏回族自治州,积石山保安族东乡族撒拉族自治县,泥石流,未分级,未定级,102.892222,35.837778,400.0,80.0,10000.0,,,暴雨/强降雨,,0
622927030020,小关乡小关村四社泥石流 ,甘肃省,临夏回族自治州,积石山保安族东乡族撒拉族自治县,泥石流,未分级,未定级,102.88768,35.584385,310.0,0.0,1500.0,,,降雨,,0
622927030028,大河家镇韩陕家村孙家沟泥石流,甘肃省,临夏回族自治州,积石山保安族东乡族撒拉族自治县,泥石流,未分级,未定级,102.819825,35.837081,26.0,0.0,65.0,,,降雨,,0
622927030029,大河家镇韩陕家村窝狼沟泥石流,甘肃省,临夏回族自治州,积石山保安族东乡族撒拉族自治县,泥石流,未分级,未定级,102.840617,35.839197,17.0,0.0,90.0,,,降雨,,0
623001000021,伊合昂格勒央宗西侧不稳定斜坡,甘肃省,甘南藏族自治州,合作市,崩塌,小,未定级,102.905519,34.985507,30.0,6.0,210.0,,,"地震,降雨,人为因素",,0
623001010018,西土房1-5#北侧滑坡,甘肃省,甘南藏族自治州,合作市,滑坡,小,未定级,103.021111,35.241389,95.0,22.0,500.0,,,降雨,,0
623021000038,慈云寺西侧不稳定斜坡,甘肃省,甘南藏族自治州,临潭县,滑坡,中,未定级,103.358333,34.686667,126.0,27.0,700.0,,,"地震,降雨,人为因素",,0
623021000041,庙花山村1号,甘肃省,甘南藏族自治州,临潭县,崩塌,中,未定级,103.651111,35.038889,23.0,7.0,300.0,,,"降雨,地震",,0
623021000053,上河滩村西山坡不稳定斜坡,甘肃省,甘南藏族自治州,临潭县,崩塌,中,未定级,103.344444,34.695278,14.0,4.0,20.0,,,降雨,,0
623021000054,青崖不稳定斜坡,甘肃省,甘南藏族自治州,临潭县,滑坡,小,红色,103.360031,34.679534,20.0,5.0,100.0,,,降雨,,0
623021000062,峡里不稳定斜坡,甘肃省,甘南藏族自治州,临潭县,滑坡,小,未定级,103.675322,34.96005,15.0,4.0,150.0,,,"地震,降雨,人为因素",,0
623021000068,庙花山村2号,甘肃省,甘南藏族自治州,临潭县,崩塌,小,蓝色,103.6509,35.0399,14.0,6.0,20.0,,,降雨,,0
623021000070,后池易地搬迁安置点不稳定斜波,甘肃省,甘南藏族自治州,临潭县,崩塌,中,蓝色,103.580278,34.6875,33.0,10.0,230.0,,,降雨,,0
623021010043,南门河村,甘肃省,甘南藏族自治州,临潭县,滑坡,中,蓝色,103.580278,34.671944,40.0,9.0,300.0,,,"地震,降雨",,0
623021010046,牙布山村,甘肃省,甘南藏族自治州,临潭县,滑坡,未分级,蓝色,103.757736,34.974095,30.0,0.0,180.0,,,"地震,降雨",,0
623021010048,古战山村滑坡,甘肃省,甘南藏族自治州,临潭县,滑坡,中,蓝色,103.321111,34.718056,45.0,10.0,270.0,,,"地震,降雨",,0
623021010051,甘尼村滑坡,甘肃省,甘南藏族自治州,临潭县,滑坡,中,蓝色,103.326701,34.669982,20.0,4.0,1200.0,,,降雨,,0
623021010053,江红坡滑坡,甘肃省,甘南藏族自治州,临潭县,滑坡,中,黄色,103.350753,34.681467,20.0,5.0,120.0,,,"地震,降雨,人为因素",,0
623021010055,苏家庄子滑坡,甘肃省,甘南藏族自治州,临潭县,滑坡,中,未定级,103.381944,34.693333,15.0,4.0,90.0,,,"地震,降雨",,0
623021010058,洪家庄沟滑坡,甘肃省,甘南藏族自治州,临潭县,滑坡,大,黄色,103.635,34.970278,5.0,1.0,20.0,,,"地震,降雨",,0
623021010062,左拉村滑坡,甘肃省,甘南藏族自治州,临潭县,滑坡,中,蓝色,103.366111,34.710278,15.0,4.0,90.0,,,"地震,降雨",,0
623021010063,拉尕城滑坡,甘肃省,甘南藏族自治州,临潭县,滑坡,未分级,红色,103.753259,34.797235,47.0,0.0,120.0,,,地震,,0
623021010066,秋峪山滑坡,甘肃省,甘南藏族自治州,临潭县,滑坡,大,蓝色,103.781944,34.901389,200.0,36.0,860.0,,,降雨,,0
623021010067,坟泉社滑坡,甘肃省,甘南藏族自治州,临潭县,滑坡,中,未定级,103.674444,34.955556,135.0,33.0,300.0,,,降雨,,0
623021010068,上庙社滑坡,甘肃省,甘南藏族自治州,临潭县,滑坡,中,红色,103.643724,35.037769,15.0,3.0,90.0,,,"地震,降雨",,0
623021010069,韩家山滑坡,甘肃省,甘南藏族自治州,临潭县,滑坡,中,未定级,103.762937,34.787515,42.0,15.0,200.0,,,"地震,降雨",,0
623021010073,木地坡村尼什社滑坡,甘肃省,甘南藏族自治州,临潭县,滑坡,大,橙色,103.44275,34.726278,120.0,33.0,600.0,,,"地震,降雨",,0
623021010081,东街村凤凰山,甘肃省,甘南藏族自治州,临潭县,滑坡,小,未定级,103.595071,34.672705,20.0,6.0,240.0,,,降雨,,0
623021010084,上马牌西北侧滑破,甘肃省,甘南藏族自治州,临潭县,滑坡,中,蓝色,103.461058,34.72413,385.0,95.0,1460.0,,,降雨,,0
623021010087,莫多社滑坡,甘肃省,甘南藏族自治州,临潭县,滑坡,大,未定级,103.472726,34.668625,157.0,32.0,260.0,,,"地震,降雨",,0
623021010088,红山社滑坡,甘肃省,甘南藏族自治州,临潭县,滑坡,未分级,蓝色,103.542622,34.695503,156.0,0.0,560.0,,,降雨,,0
623021010089,路毛湾社滑坡,甘肃省,甘南藏族自治州,临潭县,滑坡,中,蓝色,103.53436,34.705983,85.0,15.0,160.0,,,地震,,0
623021010090,拉直村四社,甘肃省,甘南藏族自治州,临潭县,滑坡,未分级,蓝色,103.267222,34.681667,545.0,0.0,220.0,,,降雨,,0
623021010092,红花山滑坡,甘肃省,甘南藏族自治州,临潭县,滑坡,中,红色,103.571119,34.670561,30.0,3.0,3000.0,,,"地震,降雨,人为因素",,0
623021010093,车尼山滑坡,甘肃省,甘南藏族自治州,临潭县,滑坡,中,蓝色,103.733303,34.515387,89.0,18.0,162.0,,,"地震,降雨",,0
623021010095,湾里社滑坡,甘肃省,甘南藏族自治州,临潭县,滑坡,中,未定级,103.801739,34.565761,60.0,12.0,150.0,,,"地震,降雨",,0
623021010098,石门乡罗卜沟村滑坡,甘肃省,甘南藏族自治州,临潭县,滑坡,小,未定级,103.684119,34.70083,15.0,3.0,20.0,,,"地震,降雨,人为因素",,0
623021010099,拉布村滑坡,甘肃省,甘南藏族自治州,临潭县,滑坡,中,未定级,103.451611,34.660972,15.0,3.0,170.0,,,"地震,降雨,人为因素",,0
623021010100,大沟社滑坡,甘肃省,甘南藏族自治州,临潭县,滑坡,中,未定级,103.667194,34.730833,126.0,32.0,600.0,,,"降雨,地震,人为因素",,0
623021010101,新塘湾村滑坡,甘肃省,甘南藏族自治州,临潭县,滑坡,小,蓝色,103.748264,34.584931,28.0,7.0,100.0,,,"降雨,地震,人为因素",,0
623021020037,陈旗乡王旗村上磨沟西山崩塌,甘肃省,甘南藏族自治州,临潭县,崩塌,大,红色,103.855628,34.676519,10.0,2.0,75.0,,,"降雨,地震",,0
623021020045,新塘湾崩塌,甘肃省,甘南藏族自治州,临潭县,崩塌,小,未定级,103.73961,34.576717,25.0,5.0,80.0,,,"降雨,人为因素,地震",,0
623022000023,尕那山不稳定斜坡,甘肃省,甘南藏族自治州,卓尼县,崩塌,未分级,未定级,103.499385,34.593137,20.0,0.0,150.0,,,"降雨,人为因素",,0
623022010062,代吾纳滑坡,甘肃省,甘南藏族自治州,卓尼县,滑坡,小,黄色,103.270833,34.731111,120.0,24.0,100.0,,,降雨,,0
623022010063,草岔沟滑坡,甘肃省,甘南藏族自治州,卓尼县,滑坡,未分级,黄色,103.505752,34.649111,15.0,0.0,100.0,,,"降雨,人为因素",,0
623022010064,龙马沟滑坡,甘肃省,甘南藏族自治州,卓尼县,滑坡,中,未定级,103.561389,34.625278,93.0,19.0,500.0,,,"地震,降雨",,0
623022010066,牙乍滑坡,甘肃省,甘南藏族自治州,卓尼县,滑坡,小,未定级,103.381417,34.632167,123.0,19.0,600.0,,,降雨,,0
623022010069,柯别滑坡,甘肃省,甘南藏族自治州,卓尼县,滑坡,中,蓝色,103.430556,34.668333,55.0,12.0,300.0,,,"地震,降雨",,0
623022010070,卡别牙滑坡,甘肃省,甘南藏族自治州,卓尼县,滑坡,小,蓝色,103.433331,34.662778,151.0,30.0,100.0,,,降雨,,0
623022010072,哲子纳滑坡、泥石流,甘肃省,甘南藏族自治州,卓尼县,滑坡,小,蓝色,103.266806,34.739389,56.0,12.0,600.0,,,"人为因素,降雨",,0
623022010077,卓逊川滑坡,甘肃省,甘南藏族自治州,卓尼县,滑坡,小,蓝色,103.518861,34.722778,60.0,10.0,50.0,,,降雨,,0
623022010079,西当滑坡,甘肃省,甘南藏族自治州,卓尼县,滑坡,小,蓝色,103.517701,34.723361,486.0,97.0,900.0,,,"降雨,地震",,0
623022010080,古路坪村古路坪滑坡,甘肃省,甘南藏族自治州,卓尼县,滑坡,未分级,蓝色,103.79596,34.77014,18.0,0.0,800.0,,,降雨,,0
623022010082,包舍口滑坡,甘肃省,甘南藏族自治州,卓尼县,滑坡,中,蓝色,103.851161,34.90228,180.0,42.0,300.0,,,降雨,,0
623022010086,阴山滑坡,甘肃省,甘南藏族自治州,卓尼县,滑坡,中,未定级,103.417184,34.740098,70.0,14.0,6500.0,,,"地震,降雨",,0
623022010087,家麻沟滑坡,甘肃省,甘南藏族自治州,卓尼县,滑坡,小,未定级,103.860407,34.767495,60.0,10.0,50.0,,,降雨,,0
623022010092,杓哇乡滑坡,甘肃省,甘南藏族自治州,卓尼县,滑坡,大,未定级,103.573333,34.981389,9.0,2.0,70.0,,,"地震,降雨",,0
623022010094,头林村滑坡,甘肃省,甘南藏族自治州,卓尼县,滑坡,中,蓝色,103.869758,34.831905,38.0,9.0,200.0,,,"地震,降雨",,0
623022010101,阴加山滑坡,甘肃省,甘南藏族自治州,卓尼县,滑坡,中,未定级,103.121611,34.500472,69.0,14.0,800.0,,,降雨,,0
623022010102,坑扎村滑坡,甘肃省,甘南藏族自治州,卓尼县,滑坡,小,红色,103.889029,34.763603,190.0,40.0,1000.0,,,"降雨,人为因素",,0
623022010103,宗石村2号滑坡,甘肃省,甘南藏族自治州,卓尼县,滑坡,中,未定级,103.849674,34.88147,7.0,2.0,90.0,,,"降雨,地震",,0
623022010106,下青泥河村滑坡,甘肃省,甘南藏族自治州,卓尼县,滑坡,未分级,未定级,103.458194,34.694944,60.0,0.0,200.0,,,"降雨,人为因素",,0
623022030055,峡地沟泥石流,甘肃省,甘南藏族自治州,卓尼县,泥石流,未分级,未定级,103.824722,34.768889,150.0,0.0,1500.0,,,"降雨,地震",,0
623022030078,耍拉沟泥石流,甘肃省,甘南藏族自治州,卓尼县,泥石流,未分级,蓝色,103.865556,34.879722,335.0,0.0,2500.0,,,"地震,降雨",,0
623022030094,叶儿沟泥石流,甘肃省,甘南藏族自治州,卓尼县,泥石流,未分级,蓝色,103.494727,34.584165,240.0,0.0,1500.0,,,"地震,降雨",,0
623022030098,上河村冰角沟泥石流,甘肃省,甘南藏族自治州,卓尼县,泥石流,未分级,未定级,103.498981,34.590294,500.0,0.0,3000.0,,,"地震,降雨",,0
623023000013,舟曲县立节镇花坪村不稳定斜坡,甘肃省,甘南藏族自治州,舟曲县,崩塌,未分级,未定级,104.0821,33.8916,85.0,0.0,150.0,,,"地震,降雨",,0
623023000016,舟曲县博峪镇哈吾诺村不稳定斜坡,甘肃省,甘南藏族自治州,舟曲县,崩塌,未分级,未定级,104.391111,33.432278,673.0,0.0,1000.0,,,"降雨,地震",,0
623023010079,舟曲县曲拱坝乡勿子坝村,甘肃省,甘南藏族自治州,舟曲县,滑坡,未分级,橙色,104.583728,33.451742,26.0,0.0,77.0,,,"地震,降雨",,0
623023010080,舟曲县巴藏乡前北山村滑坡,甘肃省,甘南藏族自治州,舟曲县,滑坡,未分级,黄色,104.011521,33.923991,89.0,0.0,400.0,,,"地震,降雨",,0
623023010087,舟曲县大川石门沟村滑坡,甘肃省,甘南藏族自治州,舟曲县,滑坡,中,未定级,104.499166,33.676666,20.0,6.0,1500.0,,,"地震,降雨,其它",,0
623023010091,舟曲县博峪镇柱龙诺村滑坡,甘肃省,甘南藏族自治州,舟曲县,滑坡,未分级,蓝色,104.389722,33.4325,65.0,0.0,90.0,,,"地震,降雨",,0
623023010093,南峪乡旧寨村滑坡,甘肃省,甘南藏族自治州,舟曲县,滑坡,中,蓝色,104.399444,33.715555,160.0,35.0,550.0,,,"地震,降雨",,0
623023010094,舟曲县大川镇泄流坡村虎家崖社,甘肃省,甘南藏族自治州,舟曲县,滑坡,大,未定级,104.409079,33.739964,345.0,69.0,1500.0,,,"地震,降雨,其它",,0
623023010095,舟曲县果耶乡磨里村滑坡,甘肃省,甘南藏族自治州,舟曲县,滑坡,大,蓝色,104.431388,33.653888,57.0,10.0,150.0,,,"降雨,地震",,0
623023010099,憨班乡查拉滑坡,甘肃省,甘南藏族自治州,舟曲县,滑坡,中,黄色,104.190544,33.910606,37.0,6.0,150.0,,,"地震,降雨",,0
623023010102,东山乡中牌村滑坡,甘肃省,甘南藏族自治州,舟曲县,滑坡,特大,红色,104.509872,33.730485,1300.0,120.0,8000.0,,,"地震,降雨",,0
623023010103,插岗乡嘎尔村滑坡,甘肃省,甘南藏族自治州,舟曲县,滑坡,大,蓝色,104.346421,33.584791,204.0,39.0,1500.0,,,"地震,降雨,人为因素,其它",,0
623023010104,舟曲县拱坝乡阳庄山村滑坡,甘肃省,甘南藏族自治州,舟曲县,滑坡,大,未定级,104.2,33.812611,210.0,53.0,735.0,,,"其它,地震,降雨,人为因素",,0
623023010106,东山乡暖泉滑坡,甘肃省,甘南藏族自治州,舟曲县,滑坡,大,蓝色,104.485277,33.719388,178.0,55.0,800.0,,,降雨,,0
623023010107,江盘乡河南村河南滑坡,甘肃省,甘南藏族自治州,舟曲县,滑坡,大,橙色,104.370055,33.771694,420.0,107.0,2000.0,,,"地震,降雨,其它",,0
623023010108,舟曲县八楞乡阳山村滑坡,甘肃省,甘南藏族自治州,舟曲县,滑坡,未分级,未定级,104.509799,33.600784,87.0,0.0,66.0,,,"地震,降雨",,0
623023010109,舟曲县插岗角绕村滑坡,甘肃省,甘南藏族自治州,舟曲县,滑坡,未分级,蓝色,104.371732,33.573919,190.0,0.0,1000.0,,,降雨,,0
623023010111,江盘乡姚家楞村滑坡,甘肃省,甘南藏族自治州,舟曲县,滑坡,中,蓝色,104.374611,33.755555,105.0,30.0,460.0,,,"地震,降雨,其它",,0
623023010112,舟曲县曲瓦乡宵藏村滑坡,甘肃省,甘南藏族自治州,舟曲县,滑坡,未分级,未定级,103.953397,33.869361,88.0,0.0,190.0,,,"地震,降雨",,0
623023010114,大川乡泄流坡滑坡,甘肃省,甘南藏族自治州,舟曲县,滑坡,大,未定级,104.423055,33.742222,80.0,16.0,4000.0,,,"地震,降雨",,0
623023010116,拱坝乡坎坎坝滑坡,甘肃省,甘南藏族自治州,舟曲县,滑坡,中,红色,104.519722,33.501111,87.0,24.0,440.0,,,降雨,,0
623023010120,憨班乡古当村滑坡,甘肃省,甘南藏族自治州,舟曲县,滑坡,大,未定级,104.210074,33.838936,200.0,53.0,1200.0,,,"地震,降雨,人为因素,其它",,0
623023010121,峰迭乡阴山村,甘肃省,甘南藏族自治州,舟曲县,滑坡,中,未定级,104.258006,33.790984,405.0,101.0,196.0,,,降雨,,0
623023010122,舟曲县曲告纳乡木耳村河坝,甘肃省,甘南藏族自治州,舟曲县,滑坡,小,橙色,104.667108,33.441313,12.0,3.0,24.0,,,降雨,,0
623023010125,江盘乡端山村滑坡,甘肃省,甘南藏族自治州,舟曲县,滑坡,大,红色,104.3622,33.761678,800.0,200.0,3560.0,,,"地震,降雨,其它",,0
623023010126,中牌乡下庄滑坡,甘肃省,甘南藏族自治州,舟曲县,滑坡,大,蓝色,104.507638,33.740111,350.0,90.0,1500.0,,,降雨,,0
623023010127,城关镇真牙头村滑坡,甘肃省,甘南藏族自治州,舟曲县,滑坡,大,未定级,104.34495,33.796897,362.0,72.0,1400.0,,,"地震,降雨,人为因素,其它",,0
623023010128,舟曲县城关镇交警大队左侧,甘肃省,甘南藏族自治州,舟曲县,滑坡,中,黄色,104.380995,33.775144,124.0,49.0,600.0,,,"地震,降雨",,0
623023010129,舟曲县大川镇通化头村滑坡,甘肃省,甘南藏族自治州,舟曲县,滑坡,未分级,蓝色,104.476655,33.676387,189.0,0.0,20.0,,,"地震,降雨",,0
623023010130,真庄滑坡隐患点,甘肃省,甘南藏族自治州,舟曲县,滑坡,大,蓝色,104.27,33.656666,730.0,107.0,3420.0,,,"地震,降雨,人为因素,其它",,0
623023010131,武坪乡河那滑坡,甘肃省,甘南藏族自治州,舟曲县,滑坡,中,红色,104.29013,33.61262,95.0,13.0,400.0,,,"地震,降雨,人为因素,其它",,0
623023010134,博峪乡第二坎滑坡,甘肃省,甘南藏族自治州,舟曲县,滑坡,未分级,蓝色,104.393056,33.430278,235.0,0.0,100.0,,,降雨,,0
623023010135,八楞乡林家山滑坡,甘肃省,甘南藏族自治州,舟曲县,滑坡,大,未定级,104.563611,33.5725,193.0,41.0,860.0,,,"地震,降雨,其它",,0
623023010137,舟江盘乡阳山村阳山滑坡,甘肃省,甘南藏族自治州,舟曲县,滑坡,中,黄色,104.382777,33.733611,80.0,140.0,4000.0,,,"其它,地震,降雨,人为因素",,0
623023010138,憨班铺滑坡,甘肃省,甘南藏族自治州,舟曲县,滑坡,未分级,未定级,104.173776,33.874379,20.0,5.0,80.0,,,"地震,降雨,加载",,0
623023010139,憨班乡老沟滑坡,甘肃省,甘南藏族自治州,舟曲县,滑坡,大,红色,104.195744,33.912694,612.0,120.0,2000.0,,,"地震,降雨,人为因素,其它",,0
623023010140,舟曲县果耶乡虎家梁村,甘肃省,甘南藏族自治州,舟曲县,滑坡,中,蓝色,104.435361,33.626935,88.0,26.0,155.0,,,降雨,,0
623023010141,舟曲县果耶乡前山村滑坡,甘肃省,甘南藏族自治州,舟曲县,滑坡,大,未定级,104.479875,33.641286,68.0,12.0,124.0,,,"地震,降雨",,0
623023010142,大峪乡大崖滑坡,甘肃省,甘南藏族自治州,舟曲县,滑坡,中,红色,104.081897,33.800777,270.0,70.0,980.0,,,"地震,降雨,其它",,0
623023010143,立节北山滑坡,甘肃省,甘南藏族自治州,舟曲县,滑坡,未分级,红色,104.068056,33.899722,3200.0,0.0,30000.0,,,"降雨,地震",,0
623023010144,舟曲县江盘乡河南牡丹坡滑坡,甘肃省,甘南藏族自治州,舟曲县,滑坡,大,未定级,104.370691,33.775952,100.0,25.0,1300.0,,,"地震,降雨,其它",,0
623023010145,舟曲县东山乡毛家村,甘肃省,甘南藏族自治州,舟曲县,滑坡,未分级,未定级,104.521496,33.744515,20.0,0.0,160.0,,,"降雨,人为因素",,0
623023010149,舟曲县八愣乡阳山里滑坡,甘肃省,甘南藏族自治州,舟曲县,滑坡,小,红色,104.509166,33.601004,56.0,19.0,150.0,,,"地震,降雨",,0
623023010152,曲瓦乡水泉村滑坡,甘肃省,甘南藏族自治州,舟曲县,滑坡,中,黄色,103.996178,33.904485,300.0,76.0,1800.0,,,"其它,地震,降雨",,0
623023010156, 拱坝乡驼骆山村滑坡,甘肃省,甘南藏族自治州,舟曲县,滑坡,中,蓝色,104.487091,33.506287,60.0,13.0,550.0,,,"地震,降雨",,0
623023010157,果耶乡吾德村滑坡,甘肃省,甘南藏族自治州,舟曲县,滑坡,大,蓝色,104.403055,33.646666,129.0,30.0,2000.0,,,降雨,,0
623023010158,东山镇张家村牙豁口滑坡,甘肃省,甘南藏族自治州,舟曲县,滑坡,大,蓝色,104.514455,33.741125,7152.0,1741.0,20000.0,,,降雨,,0
623023010159,拱坝乡卧勒村下先锋组滑坡,甘肃省,甘南藏族自治州,舟曲县,滑坡,小,红色,104.55319,33.468594,10.0,2.0,75.0,,,降雨,,0
623023010160,宵藏村下莫藏滑坡,甘肃省,甘南藏族自治州,舟曲县,滑坡,未分级,未定级,103.97153,33.890611,112.0,30.0,650.0,,,"地震,降雨,加载",,0
623023010161,大峪乡前马村滑坡,甘肃省,甘南藏族自治州,舟曲县,滑坡,大,橙色,104.097777,33.800555,65.0,17.0,230.0,,,"地震,降雨,其它",,0
623023010162,拱坝乡拱坝村滑坡,甘肃省,甘南藏族自治州,舟曲县,滑坡,中,蓝色,104.531413,33.483983,470.0,95.0,2000.0,,,降雨,,0
623023010485,舟曲县大川镇两河口,甘肃省,甘南藏族自治州,舟曲县,滑坡,中,蓝色,104.484319,33.696877,345.0,66.0,1000.0,,,"地震,降雨,人为因素",,0
623023010490,舟曲县城关镇罗家峪滑坡,甘肃省,甘南藏族自治州,舟曲县,滑坡,大,未定级,104.386689,33.782394,160.0,46.0,3000.0,,,"降雨,地震",,0
623023010493,东山镇张家村牙豁口滑坡,甘肃省,甘南藏族自治州,舟曲县,滑坡,未分级,未定级,104.527966,33.742876,160.0,0.0,1500.0,,,"地震,人为因素",,0
623023010495,武滩山滑坡,甘肃省,甘南藏族自治州,舟曲县,滑坡,未分级,蓝色,104.2795,33.835964,395.0,0.0,3400.0,,,"地震,降雨,人为因素",,0
623023020012,舟曲县曲告纳乡木头岭村,甘肃省,甘南藏族自治州,舟曲县,崩塌,大,蓝色,104.559835,33.33075,54.0,26.0,33.0,,,"地震,降雨",,0
623023020013,舟曲县博峪乡尖格朗村,甘肃省,甘南藏族自治州,舟曲县,崩塌,未分级,蓝色,104.441413,33.415432,65.0,0.0,32.0,,,"地震,降雨",,0
623023020014,舟曲县拱坝乡勿一族崩塌,甘肃省,甘南藏族自治州,舟曲县,崩塌,未分级,未定级,104.530399,33.45086,24.0,0.0,77.0,,,"地震,降雨",,0
623023020015,舟曲县插岗乡恰瓦村崩塌,甘肃省,甘南藏族自治州,舟曲县,崩塌,未分级,橙色,104.405892,33.554725,20.0,0.0,6000.0,,,降雨,,0
623023020016,舟曲县曲瓦乡拜藏村,甘肃省,甘南藏族自治州,舟曲县,崩塌,未分级,未定级,103.976974,33.898799,38.0,0.0,50.0,,,"地震,降雨",,0
623023020017,舟曲县峰迭新区阴山沟1号,甘肃省,甘南藏族自治州,舟曲县,崩塌,中,未定级,104.221533,33.818946,35.0,11.0,25.0,,,"地震,降雨",,0
623023020019,舟曲县东山乡石家山村,甘肃省,甘南藏族自治州,舟曲县,崩塌,大,蓝色,104.467222,33.731389,55.0,19.0,40.0,,,"地震,降雨",,0
623023020020,舟曲县拱坝乡尖刀村滑坡,甘肃省,甘南藏族自治州,舟曲县,崩塌,未分级,未定级,104.530989,33.483792,66.0,0.0,50.0,,,"地震,降雨",,0
623023020021,舟曲县武坪乡那下村,甘肃省,甘南藏族自治州,舟曲县,崩塌,大,未定级,104.308889,33.605,18.0,3.0,20.0,,,"地震,降雨",,0
623023020022,舟曲县插岗乡插岗村危岩体,甘肃省,甘南藏族自治州,舟曲县,崩塌,未分级,未定级,104.402574,33.551178,56.0,0.0,240.0,,,"地震,降雨",,0
623023030088,舟曲县峰迭镇瓜咱沟村泥石流,甘肃省,甘南藏族自治州,舟曲县,泥石流,未分级,黄色,104.247222,33.809722,60.0,10.0,200.0,,,降雨,,0
623023030089,舟曲县憨班镇黑峪沟泥石流,甘肃省,甘南藏族自治州,舟曲县,泥石流,未分级,蓝色,104.180555,33.880277,56.0,12.0,180.0,,,降雨,,0
623023030090,项哈沟泥石流,甘肃省,甘南藏族自治州,舟曲县,泥石流,未分级,蓝色,104.190611,33.872111,215.0,53.0,960.0,,,暴雨/强降雨,,0
623023030093,花年城泥石流,甘肃省,甘南藏族自治州,舟曲县,泥石流,未分级,未定级,104.083722,33.892583,950.0,158.0,4000.0,,,暴雨/强降雨,,0
623023030095,舟曲县曲瓦乡寺北沟泥石流,甘肃省,甘南藏族自治州,舟曲县,泥石流,未分级,蓝色,103.9875,33.916389,87.0,0.0,210.0,,,降雨,,0
623023030096,舟曲县大川镇石门沟泥石流,甘肃省,甘南藏族自治州,舟曲县,泥石流,未分级,蓝色,104.499444,33.676666,145.0,12.0,250.0,,,降雨,,0
623023030098,舟曲县果耶乡甘子沟村泥石流,甘肃省,甘南藏族自治州,舟曲县,泥石流,未分级,黄色,104.444444,33.6325,110.0,10.0,210.0,,,降雨,,0
623023030102,舟曲县大峪乡建立沟村泥石流,甘肃省,甘南藏族自治州,舟曲县,泥石流,未分级,蓝色,104.037222,33.843888,44.0,0.0,168.0,,,降雨,,0
623023030103,舟曲县大峪乡得力坎村泥石流,甘肃省,甘南藏族自治州,舟曲县,泥石流,未分级,红色,104.0325,33.863888,32.0,0.0,160.0,,,降雨,,0
623023030105,阳山沟,甘肃省,甘南藏族自治州,舟曲县,泥石流,未分级,蓝色,104.218807,33.818288,68.0,20.0,300.0,,,暴雨/强降雨,,0
623023030107,舟曲县曲告纳乡庄房坝村泥石流,甘肃省,甘南藏族自治州,舟曲县,泥石流,未分级,蓝色,104.603199,33.401605,75.0,14.0,220.0,,,降雨,,0
623023030109,舟曲县博峪乡第二坎沟口泥石流,甘肃省,甘南藏族自治州,舟曲县,泥石流,未分级,未定级,104.393803,33.432894,108.0,0.0,200.0,,,降雨,,0
623023030111,舟曲县博峪乡开麻村泥石流,甘肃省,甘南藏族自治州,舟曲县,泥石流,未分级,黄色,104.411722,33.439864,150.0,0.0,290.0,,,降雨,,0
623023030113,舟曲县武坪乡峡子沟泥石流,甘肃省,甘南藏族自治州,舟曲县,泥石流,未分级,黄色,104.349972,33.616667,55.0,10.0,190.0,,,降雨,,0
623023030118,舟曲县立节乡立节村（1沟帮）泥石流,甘肃省,甘南藏族自治州,舟曲县,泥石流,未分级,蓝色,104.063888,33.898888,110.0,0.0,210.0,,,降雨,,0
623023030119,舟曲县大峪乡多拉村年藏组泥石流,甘肃省,甘南藏族自治州,舟曲县,泥石流,未分级,黄色,104.031388,33.858333,18.0,0.0,20.0,,,降雨,,0
623023030120,城关乡三眼峪沟泥石流,甘肃省,甘南藏族自治州,舟曲县,泥石流,未分级,红色,104.373611,33.793889,358.0,0.0,2450.0,,,降雨,,0
623023030132,城关乡罗家峪沟泥石流,甘肃省,甘南藏族自治州,舟曲县,泥石流,未分级,蓝色,104.376667,33.788333,430.0,0.0,2600.0,,,降雨,,0
623023030134,萨尔诺沟,甘肃省,甘南藏族自治州,舟曲县,泥石流,未分级,蓝色,104.302333,33.6,160.0,41.0,700.0,,,暴雨/强降雨,,0
623023030135,舟曲县武平镇武坪村大水沟泥石流,甘肃省,甘南藏族自治州,舟曲县,泥石流,未分级,红色,104.336667,33.596944,70.0,14.0,200.0,,,降雨,,0
623023030136,舟曲县插岗乡嘎尔沟泥石流,甘肃省,甘南藏族自治州,舟曲县,泥石流,未分级,未定级,104.354167,33.581389,60.0,0.0,200.0,,,降雨,,0
623023030137,干涧坝泥石流,甘肃省,甘南藏族自治州,舟曲县,泥石流,未分级,未定级,104.445719,33.557553,120.0,32.0,780.0,,,暴雨/强降雨,,0
623023030144,舟曲县大峪乡油坊沟泥石流,甘肃省,甘南藏族自治州,舟曲县,泥石流,未分级,蓝色,104.040833,33.873055,98.0,0.0,180.0,,,降雨,,0
623023030148,勿一族河坝泥石流,甘肃省,甘南藏族自治州,舟曲县,泥石流,未分级,未定级,104.584491,33.452136,168.0,42.0,500.0,,,暴雨/强降雨,,0
623023030150,舟曲县拱坝乡卡子沟泥石流,甘肃省,甘南藏族自治州,舟曲县,泥石流,未分级,蓝色,104.534966,33.482765,140.0,0.0,230.0,,,降雨,,0
623023030152,城关乡沙川村庙儿沟泥石流,甘肃省,甘南藏族自治州,舟曲县,泥石流,未分级,蓝色,104.3125,33.778333,175.0,0.0,210.0,,,降雨,,0
623023030153,峰迭乡磨沟村泥石流,甘肃省,甘南藏族自治州,舟曲县,泥石流,未分级,蓝色,104.290278,33.791944,120.0,14.0,570.0,,,降雨,,0
623023030155,舟曲县曲告纳镇木耳河坝泥石流,甘肃省,甘南藏族自治州,舟曲县,泥石流,未分级,蓝色,104.655,33.43,59.0,9.0,190.0,,,降雨,,0
623023030157,舟曲县巴藏镇后北山村泥石流,甘肃省,甘南藏族自治州,舟曲县,泥石流,未分级,蓝色,104.055555,33.97,170.0,0.0,300.0,,,降雨,,0
623023030159,舟曲县立节乡宁宁沟村泥石流,甘肃省,甘南藏族自治州,舟曲县,泥石流,未分级,未定级,104.105899,33.856656,145.0,0.0,200.0,,,降雨,,0
623023030163,舟曲县曲告纳镇李子坪村泥石流,甘肃省,甘南藏族自治州,舟曲县,泥石流,未分级,黄色,104.563105,33.363499,87.0,12.0,160.0,,,降雨,,0
623023030164,拱坝镇陀骆山村沙拜诺沟泥石流,甘肃省,甘南藏族自治州,舟曲县,泥石流,未分级,黄色,104.498888,33.514444,74.0,0.0,120.0,,,降雨,,0
623023030165,曲告纳乡燕麦村泥石流,甘肃省,甘南藏族自治州,舟曲县,泥石流,未分级,黄色,104.614722,33.410556,111.0,14.0,230.0,,,降雨,,0
623023030167,南峪沟枣园沟泥石流,甘肃省,甘南藏族自治州,舟曲县,泥石流,未分级,黄色,104.401405,33.716909,120.0,0.0,460.0,,,降雨,,0
623023030169,下大年坝北沟泥石流,甘肃省,甘南藏族自治州,舟曲县,泥石流,未分级,未定级,104.622194,33.438806,70.0,13.0,300.0,,,暴雨/强降雨,,0
623023030170,舟曲县曲告纳镇年子坝泥石流,甘肃省,甘南藏族自治州,舟曲县,泥石流,未分级,红色,104.602778,33.435278,87.0,0.0,160.0,,,降雨,,0
623023030174,舟曲县拱坝乡阳庄坝村泥石流,甘肃省,甘南藏族自治州,舟曲县,泥石流,未分级,黄色,104.461111,33.538611,50.0,0.0,80.0,,,降雨,,0
623023030175,舟曲县坪定乡武滩山村泥石流,甘肃省,甘南藏族自治州,舟曲县,泥石流,未分级,未定级,104.278611,33.8325,180.0,0.0,450.0,,,降雨,,0
623024000013,哇曲村不稳定斜坡,甘肃省,甘南藏族自治州,迭部县,滑坡,小,未定级,103.196667,34.069167,52.0,15.0,230.0,,,降雨,,0
623024010058,黑多沟滑坡,甘肃省,甘南藏族自治州,迭部县,滑坡,中,蓝色,103.875367,34.065247,250.0,50.0,50.0,,,"地震,降雨,人为因素",,0
623024010059,黑多村滑坡,甘肃省,甘南藏族自治州,迭部县,滑坡,中,蓝色,103.868333,34.073333,850.0,50.0,26600.0,,,降雨,,0
623024010060,黑多寺滑坡,甘肃省,甘南藏族自治州,迭部县,滑坡,小,蓝色,103.883172,34.057006,156.0,30.0,560.0,,,"地震,降雨,人为因素",,0
623024010061,迭部县桑坝乡查布滑坡,甘肃省,甘南藏族自治州,迭部县,滑坡,小,蓝色,103.8075,34.056111,58.0,14.0,200.0,,,降雨,,0
623024010063,黑拉滑坡,甘肃省,甘南藏族自治州,迭部县,滑坡,中,蓝色,103.745278,34.095556,192.0,53.0,700.0,,,"地震,降雨",,0
623024010064,查居村滑坡,甘肃省,甘南藏族自治州,迭部县,滑坡,中,未定级,104.0156,33.989758,43.0,6.0,200.0,,,"地震,降雨,人为因素",,0
623024010065,白古村滑坡,甘肃省,甘南藏族自治州,迭部县,滑坡,中,蓝色,103.929203,33.761008,488.0,21.0,2000.0,,,降雨,,0
623024010069,卡坝路滑坡,甘肃省,甘南藏族自治州,迭部县,滑坡,中,未定级,103.801389,33.941389,385.0,20.0,1460.0,,,"地震,降雨",,0
623024010071,那盖村滑坡,甘肃省,甘南藏族自治州,迭部县,滑坡,中,蓝色,103.773767,33.867575,176.0,35.0,1200.0,,,"地震,降雨,人为因素",,0
623024010072,班藏滑坡,甘肃省,甘南藏族自治州,迭部县,滑坡,小,未定级,103.733185,33.920483,11.0,2.0,40.0,,,降雨,,0
623024010074,东尕卡村滑坡,甘肃省,甘南藏族自治州,迭部县,滑坡,大,蓝色,103.5882,34.089178,173.0,53.0,600.0,,,"地震,人为因素,降雨",,0
623024010076,拉哈卡滑坡,甘肃省,甘南藏族自治州,迭部县,滑坡,大,黄色,103.580819,34.004572,46.0,10.0,100.0,,,"地震,降雨,人为因素",,0
623024010082,日秀卡滑坡,甘肃省,甘南藏族自治州,迭部县,滑坡,中,未定级,103.492586,34.037662,108.0,26.0,500.0,,,降雨,,0
623024010083,普哇滑坡,甘肃省,甘南藏族自治州,迭部县,滑坡,小,未定级,103.284092,33.880004,28.0,6.0,150.0,,,降雨,,0
623024010084,电尕镇祖西滑坡,甘肃省,甘南藏族自治州,迭部县,滑坡,中,红色,103.297,34.193975,90.0,15.0,500.0,,,"地震,降雨",,0
623024010085,电尕镇政府滑坡,甘肃省,甘南藏族自治州,迭部县,滑坡,未分级,橙色,103.210561,34.057636,300.0,0.0,3000.0,,,"地震,降雨,人为因素",,0
623024010090,纳加滑坡,甘肃省,甘南藏族自治州,迭部县,滑坡,未分级,红色,103.194297,34.190093,285.0,0.0,1000.0,,,"地震,降雨",,0
623024010091,益哇乡扎尕那滑坡,甘肃省,甘南藏族自治州,迭部县,滑坡,大,黄色,103.166407,34.237204,950.0,138.0,9000.0,,,"降雨,地震",,0
623024010098,冬哈卡滑坡,甘肃省,甘南藏族自治州,迭部县,滑坡,未分级,橙色,103.506831,33.968251,85.0,0.0,280.0,,,降雨,,0
623024010103,道扎村口滑坡,甘肃省,甘南藏族自治州,迭部县,滑坡,未分级,黄色,103.834206,34.025775,45.0,0.0,20.0,,,"地震,降雨,人为因素",,0
623024010104,迭部县益哇乡代巴滑坡,甘肃省,甘南藏族自治州,迭部县,滑坡,大,黄色,103.179303,34.235453,261.0,84.0,800.0,,,"地震,降雨,人为因素",,0
623024010107,科牙滑坡,甘肃省,甘南藏族自治州,迭部县,滑坡,大,蓝色,103.764608,33.892098,336.0,80.0,2500.0,,,降雨,,0
623024010111,赵藏村滑坡,甘肃省,甘南藏族自治州,迭部县,滑坡,大,黄色,104.006947,34.011422,90.0,18.0,400.0,,,"地震,降雨,人为因素",,0
623024010113,迭部县多儿沟旺藏镇班藏村东侧山坡滑坡,甘肃省,甘南藏族自治州,迭部县,滑坡,大,黄色,103.731705,33.922737,10.0,3.0,50.0,,,"降雨,地震",,0
623024010114,	电尕镇吾子村洛克组滑坡,甘肃省,甘南藏族自治州,迭部县,滑坡,小,蓝色,103.2557,34.1528,60.0,70.0,240.0,,,降雨,,0
623024010115,	多儿乡尼藏村滑坡,甘肃省,甘南藏族自治州,迭部县,滑坡,小,蓝色,103.920031,33.793231,40.0,60.0,400.0,,,降雨,,0
623024010116,益哇乡东哇村滑坡,甘肃省,甘南藏族自治州,迭部县,滑坡,小,蓝色,103.192,34.2375,40.0,10.0,200.0,,,"降雨,人为因素",,0
623024010117,尼傲乡苏录喀村滑坡,甘肃省,甘南藏族自治州,迭部县,滑坡,小,未定级,103.569678,34.093431,64.0,14.0,160.0,,,降雨,,0
623024010118,洛大镇北寨村滑坡,甘肃省,甘南藏族自治州,迭部县,滑坡,小,蓝色,103.8609,33.9286,40.0,50.0,210.0,,,降雨,,0
623024010119,洛大乡尖藏村滑坡,甘肃省,甘南藏族自治州,迭部县,滑坡,小,蓝色,103.931361,34.014361,40.0,10.0,100.0,,,降雨,,0
623024010120,卡坝乡桃吾喀村滑坡,甘肃省,甘南藏族自治州,迭部县,滑坡,中,未定级,103.483268,34.010841,20.0,8.0,300.0,,,降雨,,0
623024010121,亚拉村滑坡,甘肃省,甘南藏族自治州,迭部县,滑坡,中,红色,103.382294,33.79194,58.0,10.0,200.0,,,降雨,,0
623024010122,腊子口林场崩塌,甘肃省,甘南藏族自治州,迭部县,滑坡,中,蓝色,103.863361,34.213139,8.0,2.0,12.0,,,降雨,,0
623024020081,迭部县益哇乡当多行政村尼哇自然村崩塌,甘肃省,甘南藏族自治州,迭部县,崩塌,中,黄色,103.028642,34.222209,5.0,1.0,10.0,,,降雨,,0
623024020093,那盖村北崩塌,甘肃省,甘南藏族自治州,迭部县,崩塌,小,未定级,103.222656,33.853727,12.0,3.0,20.0,,,降雨,,0
623024020109,高则村南崩塌,甘肃省,甘南藏族自治州,迭部县,崩塌,未分级,蓝色,103.382009,33.842781,6.0,0.0,10.0,,,降雨,,0
623024020132,纳告崩塌,甘肃省,甘南藏族自治州,迭部县,崩塌,大,红色,103.715108,33.807066,5.0,1.0,30.0,,,降雨,,0
623024020133,大板崩塌,甘肃省,甘南藏族自治州,迭部县,崩塌,中,未定级,103.587249,33.792339,7.0,2.0,15.0,,,降雨,,0
623024020134,西居村崩塌,甘肃省,甘南藏族自治州,迭部县,崩塌,大,未定级,103.751235,33.815356,12.0,3.0,50.0,,,降雨,,0
623024020151,北大街支三路崩塌,甘肃省,甘南藏族自治州,迭部县,崩塌,小,未定级,103.2242,34.062,35.0,7.0,120.0,,,"降雨,人为因素",,0
623024030198,大拉村泥石流沟,甘肃省,甘南藏族自治州,迭部县,泥石流,未分级,蓝色,103.999294,34.106638,725.0,0.0,1200.0,,,"地震,降雨,人为因素",,0
623024030199,朱立沟泥石流,甘肃省,甘南藏族自治州,迭部县,泥石流,未分级,红色,103.951944,34.116111,1500.0,200.0,5000.0,,,降雨,,0
623024030218,达拉乡扎哇那村泥石流,甘肃省,甘南藏族自治州,迭部县,泥石流,未分级,未定级,103.488528,33.950278,200.0,50.0,1600.0,,,"地震,降雨",,0
623024030219,年那村泥石流沟,甘肃省,甘南藏族自治州,迭部县,泥石流,未分级,蓝色,103.442781,33.92855,150.0,30.0,350.0,,,"降雨,人为因素",,0
623024030242,磨沟泥石流,甘肃省,甘南藏族自治州,迭部县,泥石流,未分级,蓝色,103.908889,33.986389,42.0,10.0,1000.0,,,降雨,,0
623024030255,西居村泥石流沟,甘肃省,甘南藏族自治州,迭部县,泥石流,未分级,黄色,103.753853,33.813258,115.0,0.0,540.0,,,"地震,降雨,人为因素",,0
623024030256,白寨村泥石流,甘肃省,甘南藏族自治州,迭部县,泥石流,未分级,未定级,103.728312,33.834792,300.0,60.0,800.0,,,"降雨,地震",,0
623024030260,爱哇村泥石流沟,甘肃省,甘南藏族自治州,迭部县,泥石流,未分级,蓝色,103.651008,33.809008,20.0,5.0,6000.0,,,降雨,,0
623024030264,迭部县尼傲乡库地卡沟,甘肃省,甘南藏族自治州,迭部县,泥石流,未分级,红色,103.576558,34.094572,300.0,96.0,1000.0,,,"地震,降雨,人为因素",,0
623024030269,刀代卡北侧泥石流沟,甘肃省,甘南藏族自治州,迭部县,泥石流,未分级,蓝色,103.014867,34.220228,60.0,12.0,300.0,,,"地震,降雨,人为因素",,0
623024030276,益哇乡高杂村热藏沟,甘肃省,甘南藏族自治州,迭部县,泥石流,未分级,橙色,103.174111,34.135311,200.0,45.0,500.0,,,"降雨,人为因素",,0
623024030278,电尕镇傲傲村傲傲沟泥石流,甘肃省,甘南藏族自治州,迭部县,泥石流,未分级,蓝色,103.285167,34.023472,150.0,45.0,700.0,,,"地震,降雨",,0
623024030318,尕固村泥石流沟,甘肃省,甘南藏族自治州,迭部县,泥石流,未分级,未定级,103.202804,34.188447,120.0,30.0,150.0,,,"降雨,人为因素",,0
623024030329,日盖沟泥石流,甘肃省,甘南藏族自治州,迭部县,泥石流,未分级,蓝色,103.225662,34.123153,120.0,30.0,150.0,,,"降雨,人为因素",,0
623025000001,年土寺不稳定斜坡,甘肃省,甘南藏族自治州,玛曲县,滑坡,中,蓝色,101.70916,34.073611,304.0,101.0,2400.0,,,"降雨,地震",,0
623025020023,木西合乡政府段黄河沿岸崩塌,甘肃省,甘南藏族自治州,玛曲县,崩塌,未分级,黄色,101.24298,33.756159,325.0,0.0,2000.0,,,地震,,0
623025030033,玛曲县尼玛镇萨河沟泥石流,甘肃省,甘南藏族自治州,玛曲县,泥石流,未分级,未定级,102.068131,34.022919,390.0,78.0,3000.0,,,降雨,,0
623026000023,碌曲县玛艾镇汽车服务中心墙后不稳定斜坡,甘肃省,甘南藏族自治州,碌曲县,崩塌,中,未定级,102.470919,34.593422,90.0,18.0,200.0,,,降雨,,0
623026000025,碌曲县玛艾镇藏医院不稳定斜坡,甘肃省,甘南藏族自治州,碌曲县,崩塌,大,黄色,102.477222,34.59425,450.0,90.0,4500.0,,,降雨,,0
623026000027,碌曲县玛艾镇人民会堂北侧不稳定斜坡,甘肃省,甘南藏族自治州,碌曲县,滑坡,小,红色,102.487194,34.593667,64.0,19.0,800.0,,,降雨,,0
623026010017,碌曲县西仓镇阿拉村碌则公路旁哲隆则滑坡,甘肃省,甘南藏族自治州,碌曲县,滑坡,中,未定级,102.619828,34.54603,15.0,4.0,35.1,,,降雨,,0
623027000012,达麦店不稳定斜坡,甘肃省,甘南藏族自治州,夏河县,崩塌,中,蓝色,102.660083,35.195778,50.0,10.0,100.0,,,"降雨,人为因素",,0
623027000015,小草滩不稳定斜坡,甘肃省,甘南藏族自治州,夏河县,崩塌,小,红色,102.872694,35.373333,30.0,6.0,300.0,,,"降雨,人为因素",,0
623027000016,大草滩不稳定斜坡,甘肃省,甘南藏族自治州,夏河县,崩塌,小,未定级,102.859608,35.386439,20.0,4.0,200.0,,,"降雨,人为因素",,0
623027000021,晒经滩不稳定斜坡,甘肃省,甘南藏族自治州,夏河县,崩塌,中,红色,102.90671,35.374839,20.0,4.0,100.0,,,"降雨,人为因素",,0
623027010005,政府后滑坡,甘肃省,甘南藏族自治州,夏河县,滑坡,未分级,蓝色,102.84896,35.14308,336.0,0.0,2500.0,,,降雨,,0
623027010006,果宁沟滑坡,甘肃省,甘南藏族自治州,夏河县,滑坡,小,未定级,102.718056,35.312222,193.0,32.0,770.0,,,"降雨,人为因素",,0
623027010007,者会滑坡,甘肃省,甘南藏族自治州,夏河县,滑坡,小,蓝色,102.789722,35.165556,196.0,43.0,490.0,,,"地震,降雨",,0
623027020022,加道崩塌,甘肃省,甘南藏族自治州,夏河县,崩塌,大,未定级,102.88,35.366944,40.0,9.0,150.0,,,"降雨,地震",,0
623027020024,饲料厂家属院后崩塌,甘肃省,甘南藏族自治州,夏河县,崩塌,中,未定级,102.5175,35.196667,122.0,35.0,700.0,,,"降雨,地震",,0
623027020030,山塘村东侧崩塌,甘肃省,甘南藏族自治州,夏河县,崩塌,小,蓝色,102.682528,35.217167,35.0,7.0,130.0,,,"降雨,人为因素",,0
623027030110,下滩沟泥石流,甘肃省,甘南藏族自治州,夏河县,泥石流,未分级,未定级,102.819364,35.251824,400.0,100.0,8000.0,,,暴雨/强降雨,,0
623027030111,崖玉沟泥石流,甘肃省,甘南藏族自治州,夏河县,泥石流,未分级,未定级,102.883325,35.237169,120.0,30.0,3500.0,,,暴雨/强降雨,,0
623027030112,夏兰塘沟泥石流,甘肃省,甘南藏族自治州,夏河县,泥石流,未分级,黄色,102.844444,35.066389,137.0,32.0,250.0,,,暴雨/强降雨,,0
623027030116,切浪道沟泥石流,甘肃省,甘南藏族自治州,夏河县,泥石流,未分级,未定级,102.614722,35.194667,5.0,1.0,12.0,,,暴雨/强降雨,,0
623027030119,上塘乃何沟泥石流,甘肃省,甘南藏族自治州,夏河县,泥石流,未分级,蓝色,102.484361,35.177167,25.0,6.0,1200.0,,,暴雨/强降雨,,0
623027030124,桥沟泥石流,甘肃省,甘南藏族自治州,夏河县,泥石流,未分级,未定级,102.811972,35.347806,800.0,25.0,100.0,,,暴雨/强降雨,,0
623027030125,切龙沟泥石流,甘肃省,甘南藏族自治州,夏河县,泥石流,未分级,未定级,102.737083,35.354806,70.0,68.0,1800.0,,,暴雨/强降雨,,0
623027030131,夏河县达麦乡道金囊沟泥石流（油口上沟）,甘肃省,甘南藏族自治州,夏河县,泥石流,未分级,未定级,102.680478,35.217739,51.0,13.0,450.0,,,暴雨/强降雨,,0
623027030133,夏河县达麦乡当浪沟泥石流,甘肃省,甘南藏族自治州,夏河县,泥石流,未分级,未定级,102.663132,35.186689,0.0,0.0,150.0,,,暴雨/强降雨,,0
623027030138,加仓沟泥石流,甘肃省,甘南藏族自治州,夏河县,泥石流,未分级,未定级,102.670833,35.201444,86.0,22.0,550.0,,,暴雨/强降雨,,0
623027030139,三知木沟泥石流,甘肃省,甘南藏族自治州,夏河县,泥石流,未分级,未定级,102.690667,35.193611,39.0,9.0,200.0,,,暴雨/强降雨,,0
623027030140,热科沟泥石流,甘肃省,甘南藏族自治州,夏河县,泥石流,未分级,未定级,102.743444,35.213278,46.0,11.0,450.0,,,暴雨/强降雨,,0
623027030142,尕庄沟泥石流,甘肃省,甘南藏族自治州,夏河县,泥石流,未分级,蓝色,102.518889,35.203333,260.0,52.0,10000.0,,,降雨,,0
623027030143,江马沟泥石流,甘肃省,甘南藏族自治州,夏河县,泥石流,未分级,未定级,102.672344,35.208361,140.0,35.0,9500.0,,,暴雨/强降雨,,0
623027030144,哲强沟泥石流,甘肃省,甘南藏族自治州,夏河县,泥石流,未分级,未定级,102.609306,35.185139,67.0,17.0,400.0,,,暴雨/强降雨,,0
623027030148,日贡玛沟泥石流,甘肃省,甘南藏族自治州,夏河县,泥石流,未分级,未定级,102.917889,35.397389,63.0,12.0,775.0,,,暴雨/强降雨,,0
623027030150,门乃何沟泥石流,甘肃省,甘南藏族自治州,夏河县,泥石流,未分级,未定级,102.528892,35.208008,300.0,75.0,10300.0,,,暴雨/强降雨,,0
623027030154,洒哈尔隆瓦沟泥石流,甘肃省,甘南藏族自治州,夏河县,泥石流,未分级,未定级,102.494167,35.190278,0.0,0.0,450.0,,,暴雨/强降雨,,0
623027030156,措杂沟泥石流,甘肃省,甘南藏族自治州,夏河县,泥石流,未分级,未定级,102.844444,35.136389,85.0,21.0,500.0,,,暴雨/强降雨,,0
623027030158,拉浪沟泥石流,甘肃省,甘南藏族自治州,夏河县,泥石流,未分级,未定级,102.769595,35.157137,20.0,5.0,120.0,,,暴雨/强降雨,,0
623027030172,麻尕沟泥石流,甘肃省,甘南藏族自治州,夏河县,泥石流,未分级,未定级,102.788539,35.27685,80.0,20.0,460.0,,,暴雨/强降雨,,0
623027030179,颜克尔沟泥石流,甘肃省,甘南藏族自治州,夏河县,泥石流,未分级,未定级,102.511556,35.205639,50.0,12.0,100.0,,,暴雨/强降雨,,0
623027030188,肖庄昂沟泥石流,甘肃省,甘南藏族自治州,夏河县,泥石流,未分级,未定级,102.886161,35.158225,45.0,10.0,200.0,,,暴雨/强降雨,,0
623027030195,尤江塘泥石流,甘肃省,甘南藏族自治州,夏河县,泥石流,未分级,未定级,102.556417,35.191694,0.0,0.0,750.0,,,暴雨/强降雨,,0
623027030203,洒索麻沟泥石流,甘肃省,甘南藏族自治州,夏河县,泥石流,未分级,未定级,102.808528,35.224056,35.0,9.0,85.0,,,暴雨/强降雨,,0
630101010001,彭家寨镇阴山堂村不稳定斜坡（潜滑）,青海省,西宁市,城西区,滑坡,未分级,未定级,101.633442,36.637836,60.0,0.0,400.0,,,"地震,降雨,人为因素",,0
630101010002,总寨镇上细沟村滑坡,青海省,西宁市,城中区,滑坡,未分级,未定级,101.707797,36.485847,90.0,0.0,200.0,,,"地震,降雨,人为因素",,0
630101010038,双苏堡滑坡,青海省,西宁市,城北区,滑坡,未分级,黄色,101.778992,36.703125,0.0,0.0,0.0,,,,,0
630102010081,林家崖滑坡,青海省,西宁市,城东区,滑坡,未分级,黄色,101.805599,36.636121,0.0,0.0,0.0,,,,,0
630102030002,小西沟泥石流,青海省,西宁市,城东区,泥石流,未分级,未定级,101.805599,36.636121,0.0,0.0,0.0,,,,,0
630102030005,互助县东沟乡曹家村2社潜在崩塌,青海省,海东市,互助土族自治县,崩塌,中,未定级,102.084669,36.878403,92.0,23.0,460.0,,,"地震,降雨,切坡",,0
630102030006,王家庄泥石流,青海省,西宁市,城东区,泥石流,未分级,未定级,101.805599,36.636121,0.0,0.0,0.0,,,,,0
630102030016,马圈沟泥石流,青海省,西宁市,城东区,泥石流,未分级,未定级,101.805599,36.636121,0.0,0.0,0.0,,,,,0
630102030018,小山沟泥石流,青海省,西宁市,城东区,泥石流,未分级,未定级,101.805599,36.636121,0.0,0.0,0.0,,,,,0
630102030020,红沟泥石流,青海省,西宁市,城东区,泥石流,未分级,未定级,101.805599,36.636121,0.0,0.0,0.0,,,,,0
630102039001,互助县林川乡向阳村滑坡（演练）,青海省,海东市,互助土族自治县,滑坡,未分级,未定级,101.991818,36.934701,0.0,0.0,0.0,,,,,0
630103001002,总寨镇上细沟村不稳定斜坡(潜滑),青海省,西宁市,城中区,滑坡,未分级,未定级,101.707778,36.482222,0.0,0.0,0.0,,,,,0
630121000024,塔尔镇党家庄村药草中心学校滑坡,青海省,西宁市,大通回族土族自治县,滑坡,未分级,红色,101.653889,37.050278,16.0,0.0,65.0,,,"人为因素,降雨,地震",,0
630121000045,塔尔镇泉沟村不稳定斜坡（潜滑）,青海省,西宁市,大通回族土族自治县,滑坡,未分级,蓝色,101.664667,37.005528,0.0,0.0,0.0,,,,,0
630121000049,塔尔镇韭菜沟村不稳定斜坡,青海省,西宁市,大通回族土族自治县,滑坡,未分级,蓝色,101.679444,36.995,0.0,0.0,0.0,,,,,0
630121000100,良教乡石庄村不稳定斜坡(潜滑),青海省,西宁市,大通回族土族自治县,滑坡,未分级,红色,101.622833,36.986444,0.0,0.0,0.0,,,,,0
630121000112,石山乡冰沟村潜在滑坡,青海省,西宁市,大通回族土族自治县,滑坡,未分级,红色,101.794722,36.885556,38.0,0.0,75.0,,,"降雨,人为因素",,0
630121000266,朔北乡郑家沟村不稳定斜坡(潜滑),青海省,西宁市,大通回族土族自治县,滑坡,未分级,蓝色,101.757278,36.978667,0.0,0.0,0.0,,,,,0
630121000284,长宁镇甘沟门村不稳定斜坡(潜滑),青海省,西宁市,大通回族土族自治县,滑坡,未分级,蓝色,101.773944,36.827833,0.0,0.0,0.0,,,,,0
630121000340,青林乡雪里合村1社二卡子潜滑,青海省,西宁市,大通回族土族自治县,滑坡,未分级,蓝色,101.3725,37.096944,60.0,15.0,220.0,,,"地震,降雨",,0
630121000344,青山乡西山村3社潜在滑坡,青海省,西宁市,大通回族土族自治县,滑坡,未分级,红色,101.543056,37.089167,20.0,0.0,80.0,,,"人为因素,降雨,地震",,0
630121000347,塔尔镇上半沟村2社潜在滑坡,青海省,西宁市,大通回族土族自治县,滑坡,未分级,未定级,101.641944,37.03,86.0,0.0,300.0,,,"人为因素,降雨,地震",,0
630121000350,大通县桦林乡贲哇村1社潜在滑坡,青海省,西宁市,大通回族土族自治县,滑坡,小,未定级,101.697222,37.041111,20.0,4.0,60.0,,,"地震,降雨,切坡",,0
630121000354,东峡镇南滩村1号潜在滑坡,青海省,西宁市,大通回族土族自治县,滑坡,未分级,蓝色,101.847778,37.059167,28.0,0.0,85.0,,,"地震,降雨,人为因素",,0
630121000355,大通县多林镇口子庄村2社潜在滑坡,青海省,西宁市,大通回族土族自治县,滑坡,未分级,红色,101.463611,37.048889,34.0,0.0,162.0,,,"地震,降雨,切坡",,0
630121000356,大通县多林镇吴什庄村2社潜在滑坡,青海省,西宁市,大通回族土族自治县,滑坡,未分级,未定级,101.4425,37.038611,43.0,0.0,136.0,,,"地震,降雨,切坡",,0
630121000359,逊让乡兰家村1社潜在滑坡,青海省,西宁市,大通回族土族自治县,滑坡,未分级,红色,101.486667,37.01,48.0,0.0,150.0,,,"地震,降雨,人为因素",,0
630121000360,城关镇塔哇村潜在滑坡,青海省,西宁市,大通回族土族自治县,滑坡,未分级,黄色,101.489444,37.055278,29.0,0.0,126.0,,,"地震,降雨,人为因素",,0
630121000362,斜沟乡小业坝村5社潜在滑坡,青海省,西宁市,大通回族土族自治县,滑坡,未分级,红色,101.577778,36.992778,59.0,0.0,216.0,,,"人为因素,地震,降雨",,0
630121000364,斜沟乡斜沟村3社潜在滑坡,青海省,西宁市,大通回族土族自治县,滑坡,未分级,未定级,101.581944,36.968333,44.0,0.0,198.0,,,"降雨,地震,人为因素",,0
630121000370,良教乡良教沟村潜在滑坡,青海省,西宁市,大通回族土族自治县,滑坡,未分级,红色,101.613056,36.968056,19.0,0.0,72.0,,,"降雨,人为因素,地震",,0
630121000372,良教乡沙布村一社潜在滑坡,青海省,西宁市,大通回族土族自治县,滑坡,未分级,未定级,101.618333,36.961667,40.0,9.0,125.0,,,"地震,降雨",,0
630121000378,桥头镇红河限村2社潜在滑坡,青海省,西宁市,大通回族土族自治县,滑坡,未分级,黄色,101.688611,36.948056,45.0,0.0,145.0,,,"降雨,人为因素,地震",,0
630121000382,桥头镇上庙村3社潜在滑坡,青海省,西宁市,大通回族土族自治县,滑坡,未分级,蓝色,101.666389,36.91,60.0,0.0,175.0,,,"地震,降雨,人为因素",,0
630121000384,朔北藏族乡阿家堡村1社潜在滑坡,青海省,西宁市,大通回族土族自治县,滑坡,未分级,红色,101.731944,36.960556,32.0,0.0,126.0,,,"降雨,地震,人为因素",,0
630121000386,朔北藏族乡白崖沟村潜在滑坡,青海省,西宁市,大通回族土族自治县,滑坡,未分级,红色,101.783333,36.978333,23.0,0.0,75.0,,,"人为因素,地震,降雨",,0
630121000387,大通县朔北乡旧拉浪村3社潜在滑坡,青海省,西宁市,大通回族土族自治县,滑坡,小,未定级,101.766111,36.964167,48.0,0.0,225.0,,,"地震,降雨,切坡",,0
630121000393,大通县石山乡石板滩村1社潜在滑坡,青海省,西宁市,大通回族土族自治县,滑坡,小,红色,101.800556,36.898056,44.0,10.0,132.0,,,"地震,降雨,切坡",,0
630121000394,黄家寨镇下柴村1社28号潜在滑坡,青海省,西宁市,大通回族土族自治县,滑坡,未分级,蓝色,101.668611,36.863611,69.0,15.0,195.0,,,"地震,降雨",,0
630121000395,黄家寨镇索家村潜在滑坡,青海省,西宁市,大通回族土族自治县,滑坡,未分级,红色,101.683056,36.859722,70.0,0.0,220.0,,,"降雨,地震,人为因素",,0
630121000396,大通县黄家寨镇下陶村3社潜在滑坡,青海省,西宁市,大通回族土族自治县,滑坡,中,红色,101.711944,36.869722,75.0,15.0,240.0,,,"地震,降雨,切坡",,0
630121000399,大通县宝库乡纳楞沟村3社潜在滑坡,青海省,西宁市,大通回族土族自治县,滑坡,未分级,蓝色,101.613056,37.143611,36.0,0.0,130.0,,,"地震,降雨",,0
630121000414,大通县逊让乡安宁滩村3社潜在滑坡,青海省,西宁市,大通回族土族自治县,滑坡,小,未定级,101.475555,36.988055,26.0,6.0,120.0,,,"地震,切坡,降雨",,0
630121000416,青山乡官巴村2社潜在滑坡,青海省,西宁市,大通回族土族自治县,滑坡,未分级,蓝色,101.535,37.069167,32.0,0.0,120.0,,,"地震,降雨,人为因素",,0
630121000422,大通县逊让乡尕漏村1社潜在滑坡,青海省,西宁市,大通回族土族自治县,滑坡,未分级,未定级,101.438056,37.018333,110.0,0.0,450.0,,,"地震,降雨,切坡",,0
630121000423,新庄镇台其庄村7社潜在滑坡,青海省,西宁市,大通回族土族自治县,滑坡,未分级,橙色,101.598333,37.058333,28.0,0.0,108.0,,,"地震,降雨,人为因素",,0
630121000426,东峡镇克麻尔村4社潜在滑坡,青海省,西宁市,大通回族土族自治县,滑坡,未分级,未定级,101.837222,37.063889,48.0,0.0,165.0,,,"地震,降雨,人为因素",,0
630121000427,大通县东峡镇衙门庄村5社潜在崩塌,青海省,西宁市,大通回族土族自治县,滑坡,未分级,未定级,101.809444,37.0425,30.0,0.0,98.0,,,"地震,降雨,切坡",,0
630121000428,波航乡纳隆口村西山根潜在滑坡,青海省,西宁市,湟源县,滑坡,未分级,橙色,101.257142,36.67372,140.0,30.0,415.0,,,"地震,降雨",,0
630121000429,桦林乡阿家沟村潜在滑坡,青海省,西宁市,大通回族土族自治县,滑坡,未分级,未定级,101.758056,37.061944,22.0,5.0,70.0,,,"地震,降雨",,0
630121000430,东峡镇圆墩村1社土崖湾潜在滑坡,青海省,西宁市,大通回族土族自治县,滑坡,未分级,未定级,101.751944,37.02,11.0,3.0,65.0,,,"地震,降雨",,0
630121000431,桦林乡兴隆村潜在滑坡,青海省,西宁市,大通回族土族自治县,滑坡,未分级,未定级,101.724167,37.051944,26.0,6.0,75.0,,,"地震,降雨",,0
630121000436,景阳镇甘树湾村3社潜在滑坡,青海省,西宁市,大通回族土族自治县,滑坡,未分级,蓝色,101.626667,36.815278,40.0,9.0,110.0,,,"地震,降雨",,0
630121000438,大通县景阳镇龙泉村1社潜在滑坡,青海省,西宁市,大通回族土族自治县,滑坡,未分级,红色,101.581944,36.806389,18.0,0.0,88.0,,,"地震,降雨",,0
630121000439,景阳镇什家村潜在滑坡,青海省,西宁市,大通回族土族自治县,滑坡,未分级,未定级,101.653611,36.788611,90.0,21.0,260.0,,,"地震,降雨",,0
630121000440,大通县景阳镇龙泉村3社潜在滑坡,青海省,西宁市,大通回族土族自治县,滑坡,小,未定级,101.606111,36.805278,45.0,0.0,146.0,,,"地震,降雨,切坡",,0
630121000441,景阳镇寺沟村潜在滑坡,青海省,西宁市,大通回族土族自治县,滑坡,未分级,红色,101.7025,36.791111,45.0,0.0,145.0,,,"地震,人为因素,降雨",,0
630121000443,大通县景阳镇上岗冲1社潜在滑坡,青海省,西宁市,大通回族土族自治县,滑坡,未分级,黄色,101.585556,36.835,40.0,0.0,118.0,,,"地震,降雨,切坡",,0
630121000449,石山乡红垭豁村潜在滑坡,青海省,西宁市,大通回族土族自治县,滑坡,未分级,未定级,101.787778,36.875,48.0,10.0,135.0,,,"地震,降雨",,0
630121000453,黄家寨镇平地庄村1社潜在滑坡,青海省,西宁市,大通回族土族自治县,滑坡,未分级,蓝色,101.680556,36.834722,32.0,0.0,144.0,,,"降雨,地震,人为因素",,0
630121000456,黄家寨镇台台村2社潜在滑坡,青海省,西宁市,大通回族土族自治县,滑坡,未分级,红色,101.699167,36.833611,30.0,0.0,105.0,,,"人为因素,地震,降雨",,0
630121000468,大通县斜沟乡斜沟村潜在滑坡,青海省,西宁市,大通回族土族自治县,滑坡,未分级,红色,101.581944,36.968333,64.0,0.0,205.0,,,"地震,降雨,切坡",,0
630121000471,大通县长宁镇鲍西村8社潜在滑坡,青海省,西宁市,大通回族土族自治县,滑坡,小,未定级,101.774847,36.835639,45.0,12.0,160.0,,,"地震,降雨,切坡",,0
630121000475,长宁镇康家村1、2社潜在滑坡,青海省,西宁市,大通回族土族自治县,滑坡,未分级,红色,101.774722,36.743611,40.0,0.0,150.0,,,"地震,降雨,人为因素",,0
630121000476,长宁镇康家村4社潜在滑坡,青海省,西宁市,大通回族土族自治县,滑坡,未分级,未定级,101.775556,36.749167,40.0,0.0,150.0,,,"降雨,人为因素,地震",,0
630121000485,多林镇哈州村3社潜滑,青海省,西宁市,大通回族土族自治县,滑坡,未分级,未定级,101.4475,37.055556,60.0,14.0,200.0,,,"地震,降雨",,0
630121000487,多林镇藏龙庄村3社潜滑,青海省,西宁市,大通回族土族自治县,滑坡,未分级,蓝色,101.413333,37.030556,40.0,11.0,145.0,,,"地震,降雨",,0
630121000491,桥头镇毛家寨村潜在滑坡,青海省,西宁市,大通回族土族自治县,滑坡,未分级,红色,101.740833,36.9125,45.0,0.0,145.0,,,"地震,降雨,人为因素",,0
630121000493,大通县朔北乡花科庄村潜在滑坡,青海省,西宁市,大通回族土族自治县,滑坡,未分级,未定级,101.800278,36.966389,25.0,0.0,105.0,,,"地震,降雨,切坡",,0
630121000498,大通县景阳镇泉头村1社潜在滑坡,青海省,西宁市,大通回族土族自治县,滑坡,未分级,红色,101.585833,36.818333,71.0,0.0,210.0,,,"地震,降雨,切坡",,0
630121000499,大通县景阳镇上岗冲4社潜在滑坡,青海省,西宁市,大通回族土族自治县,滑坡,未分级,蓝色,101.5775,36.837222,25.0,0.0,100.0,,,"地震,降雨,切坡",,0
630121001012,石山乡小沟村 1 社不稳定斜坡(潜滑),青海省,西宁市,大通回族土族自治县,滑坡,未分级,未定级,101.772,36.896167,0.0,0.0,0.0,,,,,0
630121001013,桥头镇人民社区(下转弯)不稳定斜坡,青海省,西宁市,大通回族土族自治县,滑坡,未分级,未定级,101.677556,36.928111,0.0,0.0,0.0,,,,,0
630121010021,青山乡聂家沟滑坡,青海省,西宁市,大通回族土族自治县,滑坡,未分级,未定级,101.486167,37.088111,0.0,0.0,0.0,,,,,0
630121010077,青山乡马场村5社斜坡（潜滑）,青海省,西宁市,大通回族土族自治县,滑坡,未分级,蓝色,101.496021,37.101692,114.0,0.0,360.0,,,"降雨,人为因素",,0
630121010078,多林镇马场村1、2社不稳定斜坡（潜滑）,青海省,西宁市,大通回族土族自治县,滑坡,未分级,未定级,101.456667,37.043611,126.0,0.0,405.0,,,"降雨,人为因素",,0
630121010079,城关镇李家磨村2社不稳定斜坡（潜滑）,青海省,西宁市,大通回族土族自治县,滑坡,未分级,蓝色,101.559444,37.046944,38.0,0.0,160.0,,,"降雨,人为因素",,0
630121010080,极乐乡白崖村1社不稳定斜坡（潜滑）,青海省,西宁市,大通回族土族自治县,滑坡,未分级,未定级,101.517367,36.985294,37.0,0.0,192.0,,,"降雨,人为因素",,0
630121010081,极乐乡深沟村不稳定斜坡（潜滑）,青海省,西宁市,大通回族土族自治县,滑坡,未分级,红色,101.540278,36.978333,87.0,0.0,270.0,,,"降雨,人为因素",,0
630121010082,良教乡前跃村不稳定斜坡（潜滑）,青海省,西宁市,大通回族土族自治县,滑坡,未分级,红色,101.595833,36.958056,60.0,0.0,270.0,,,"降雨,人为因素",,0
630121010083,良教乡沙布村4、5社不稳定斜坡（潜滑）,青海省,西宁市,大通回族土族自治县,滑坡,未分级,蓝色,101.603611,36.951356,40.0,0.0,144.0,,,"降雨,人为因素",,0
630121010084,良教乡松林村1社不稳定斜坡（潜滑）,青海省,西宁市,大通回族土族自治县,滑坡,未分级,蓝色,101.623333,36.951667,54.0,0.0,216.0,,,"降雨,人为因素",,0
630121010085,桥头镇人民路南社区不稳定斜坡（潜滑）,青海省,西宁市,大通回族土族自治县,滑坡,未分级,黄色,101.683036,36.918531,73.0,0.0,293.0,,,"降雨,人为因素",,0
630121010086,朔北乡药匠台村不稳定斜坡（潜滑）,青海省,西宁市,大通回族土族自治县,滑坡,未分级,蓝色,101.722503,36.958734,53.0,0.0,216.0,,,"降雨,人为因素",,0
630121010087,黄家寨镇阿家村2社不稳定斜坡（潜滑）,青海省,西宁市,大通回族土族自治县,滑坡,未分级,蓝色,101.689167,36.861667,40.0,0.0,160.0,,,"降雨,人为因素",,0
630121010088,宝库乡祁汉沟村2社不稳定斜坡（潜滑）,青海省,西宁市,大通回族土族自治县,滑坡,未分级,未定级,101.520485,37.122525,41.0,0.0,100.0,,,"降雨,人为因素",,0
630121010089,宝库乡纳楞沟村斜坡（潜滑）,青海省,西宁市,大通回族土族自治县,滑坡,未分级,红色,101.587222,37.131667,49.0,0.0,170.0,,,"降雨,人为因素",,0
630121010090,青山乡东山村1社不稳定斜坡（潜滑）,青海省,西宁市,大通回族土族自治县,滑坡,未分级,蓝色,101.555,37.077778,98.0,0.0,360.0,,,"降雨,人为因素",,0
630121010091,城关镇龙曲村6社不稳定斜坡（潜滑）,青海省,西宁市,大通回族土族自治县,滑坡,未分级,蓝色,101.522222,37.029167,42.0,0.0,204.0,,,"降雨,人为因素",,0
630121010092,城关镇下毛佰胜村不稳定斜坡（潜滑）,青海省,西宁市,大通回族土族自治县,滑坡,未分级,蓝色,101.556667,37.025833,60.0,0.0,255.0,,,"降雨,人为因素",,0
630121010093,极乐乡前二村5社不稳定斜坡（潜滑）,青海省,西宁市,大通回族土族自治县,滑坡,未分级,蓝色,101.531667,36.9825,56.0,0.0,252.0,,,"人为因素,降雨",,0
630121010094,长宁镇中咀山村不稳定斜坡（潜滑）,青海省,西宁市,大通回族土族自治县,滑坡,未分级,未定级,101.737778,36.773333,80.0,0.0,306.0,,,"人为因素,降雨",,0
630121010095,桦林乡台子村1社不稳定斜坡（潜滑）,青海省,西宁市,大通回族土族自治县,滑坡,未分级,蓝色,101.744167,37.008333,61.0,0.0,150.0,,,"降雨,人为因素",,0
630121010096,景阳镇苏家堡村8社不稳定斜坡（潜滑）,青海省,西宁市,大通回族土族自治县,滑坡,未分级,未定级,101.641667,36.807778,94.0,0.0,330.0,,,"降雨,人为因素",,0
630121010097,景阳镇金冲村不稳定斜坡（潜滑）,青海省,西宁市,大通回族土族自治县,滑坡,未分级,蓝色,101.610556,36.811111,40.0,0.0,150.0,,,"降雨,人为因素",,0
630121010098,塔尔镇塔尔沟村2社不稳定稳定斜坡（潜滑）,青海省,西宁市,大通回族土族自治县,滑坡,未分级,蓝色,101.679183,37.043069,40.0,0.0,150.0,,,"降雨,人为因素",,0
630121010099,石山乡铧尖村4社不稳定斜坡（潜滑）,青海省,西宁市,大通回族土族自治县,滑坡,未分级,蓝色,101.7925,36.895556,75.0,0.0,225.0,,,"降雨,人为因素",,0
630121010100,塔尔镇西庄村1社不稳定斜坡（潜滑）,青海省,西宁市,大通回族土族自治县,滑坡,未分级,蓝色,101.655539,37.069194,39.0,0.0,216.0,,,"降雨,人为因素",,0
630121010101,桥头镇向阳堡滑坡,青海省,西宁市,大通回族土族自治县,滑坡,未分级,红色,101.689211,36.967556,40.0,0.0,180.0,,,降雨,,0
630121010102,城关镇李家磨村不稳定斜坡（潜滑）,青海省,西宁市,大通回族土族自治县,滑坡,未分级,蓝色,101.555278,37.045556,61.0,0.0,288.0,,,"降雨,人为因素",,0
630121010103,黄家寨镇大哈门村3社滑坡,青海省,西宁市,大通回族土族自治县,滑坡,未分级,未定级,101.6375,36.8725,51.0,0.0,216.0,,,"降雨,人为因素",,0
630121010104,朔北乡李家堡滑坡,青海省,西宁市,大通回族土族自治县,滑坡,未分级,橙色,101.699139,36.944892,40.0,0.0,180.0,,,降雨,,0
630121010105,桥头镇窑庄村四队滑坡,青海省,西宁市,大通回族土族自治县,滑坡,未分级,未定级,101.662336,36.888333,45.0,0.0,135.0,,,"降雨,人为因素",,0
630121010106,桥头镇窑庄村石咀沟滑坡,青海省,西宁市,大通回族土族自治县,滑坡,未分级,未定级,101.662292,36.893489,45.0,0.0,135.0,,,"降雨,人为因素",,0
630121010107,桥头镇毛家寨村王家山滑坡,青海省,西宁市,大通回族土族自治县,滑坡,未分级,红色,101.738633,36.913036,50.0,0.0,180.0,,,"降雨,人为因素",,0
630121010108,城关镇下阳坡村4社滑坡,青海省,西宁市,大通回族土族自治县,滑坡,未分级,未定级,101.543333,37.060833,35.0,0.0,126.0,,,"降雨,人为因素",,0
630121010109,桥头镇向阳堡村4社滑坡,青海省,西宁市,大通回族土族自治县,滑坡,未分级,红色,101.68,36.975,56.0,0.0,252.0,,,"地震,降雨,人为因素",,0
630121010112,桥头镇安门滩村6社滑坡,青海省,西宁市,大通回族土族自治县,滑坡,未分级,黄色,101.671111,36.93,224.0,0.0,1008.0,,,"地震,降雨,人为因素",,0
630121010113,桥头镇窑庄村1社潜在滑坡,青海省,西宁市,大通回族土族自治县,滑坡,未分级,未定级,101.665278,36.891667,40.0,10.0,130.0,,,"地震,降雨",,0
630121010114,朔北藏族乡麻家庄村5社潜在滑坡,青海省,西宁市,大通回族土族自治县,滑坡,未分级,黄色,101.777222,36.965,23.0,0.0,75.0,,,"降雨,地震,人为因素",,0
630121010126,大通县多林镇石头滩村4社潜在滑坡,青海省,西宁市,大通回族土族自治县,滑坡,未分级,未定级,101.436111,37.08,55.0,0.0,200.0,,,"地震,降雨,切坡",,0
630121010130,桦林乡吕顺一村滑坡,青海省,西宁市,大通回族土族自治县,滑坡,未分级,未定级,101.745,37.06,58.0,13.0,162.0,,,"地震,降雨",,0
630121010133,大通县景阳镇土关村3社潜在滑坡,青海省,西宁市,大通回族土族自治县,滑坡,未分级,蓝色,101.655556,36.806944,90.0,0.0,360.0,,,"地震,降雨,切坡",,0
630121010137,西宁市大通县桥头镇西山滑坡,青海省,西宁市,大通回族土族自治县,滑坡,未分级,未定级,101.675639,36.922639,0.0,0.0,0.0,,,,,0
630121010146,长宁镇汪家村联营砖厂滑坡,青海省,西宁市,大通回族土族自治县,滑坡,未分级,未定级,101.774444,36.741389,130.0,10.0,315.0,,,"地震,降雨",,0
630121010155,石山乡下丰积二社滑坡,青海省,西宁市,大通回族土族自治县,滑坡,未分级,未定级,101.772325,36.906836,0.0,0.0,0.0,,,,,0
630121010163,石山乡杂户村学校滑坡,青海省,西宁市,大通回族土族自治县,滑坡,未分级,未定级,101.797222,36.88,0.0,0.0,0.0,,,,,0
630121010164,塔尔镇泉沟村3社滑坡,青海省,西宁市,大通回族土族自治县,滑坡,未分级,黄色,101.667778,37.006389,180.0,0.0,75.0,,,"地震,降雨,人为因素",,0
630121010168,东峡镇老虎沟村1社潜在滑坡,青海省,西宁市,大通回族土族自治县,滑坡,未分级,蓝色,101.805833,37.015556,43.0,10.0,125.0,,,"地震,降雨",,0
630121012301,城关镇叶家口村西山公路东侧潜在滑坡,青海省,西宁市,大通回族土族自治县,滑坡,未分级,红色,101.543889,37.055556,35.0,5.0,110.0,,,"地震,降雨,切坡",,0
630121014003,多林镇石头滩村1社滑坡,青海省,西宁市,大通回族土族自治县,滑坡,未分级,未定级,101.467778,37.068333,0.0,0.0,0.0,,,,,0
630121020025,青林乡下阳山村1社不稳定斜坡（潜崩）,青海省,西宁市,大通回族土族自治县,崩塌,未分级,未定级,101.414167,37.084722,38.0,0.0,135.0,,,"降雨,人为因素",,0
630121020026,新庄镇兰隆沟村7社不稳定斜坡（潜崩）,青海省,西宁市,大通回族土族自治县,崩塌,未分级,蓝色,101.627778,37.059444,60.0,0.0,270.0,,,"降雨,人为因素",,0
630121020027,极乐乡上和衷村2社不稳定斜坡（潜崩）,青海省,西宁市,大通回族土族自治县,崩塌,未分级,蓝色,101.557778,37.005,36.0,0.0,144.0,,,"降雨,人为因素",,0
630121020028,良教乡下治泉村1社斜坡（潜崩）,青海省,西宁市,大通回族土族自治县,崩塌,未分级,蓝色,101.638333,36.972222,40.0,0.0,144.0,,,"降雨,人为因素",,0
630121020029,朔北乡小龙院村3社不稳定斜坡（潜崩）,青海省,西宁市,大通回族土族自治县,崩塌,未分级,黄色,101.749722,36.955833,39.0,0.0,108.0,,,"降雨,人为因素",,0
630121020030,黄家寨镇大哈门村2社不稳定斜坡（潜崩）,青海省,西宁市,大通回族土族自治县,崩塌,未分级,未定级,101.6375,36.871667,45.0,0.0,201.0,,,"降雨,人为因素",,0
630121020031,黄家寨镇上柴村3社不稳定斜坡（潜崩）,青海省,西宁市,大通回族土族自治县,崩塌,未分级,蓝色,101.660278,36.868061,63.0,0.0,288.0,,,"降雨,人为因素",,0
630121020032,黄家寨镇寺尔庄村不稳定斜坡（潜崩）,青海省,西宁市,大通回族土族自治县,崩塌,未分级,蓝色,101.661944,36.842778,41.0,0.0,180.0,,,"降雨,人为因素",,0
630121020033,青林乡柳林滩村2社不稳定斜坡（潜崩）,青海省,西宁市,大通回族土族自治县,崩塌,未分级,未定级,101.301944,37.126667,56.0,0.0,195.0,,,"降雨,人为因素",,0
630121020034,青山乡东山村3社不稳定斜坡（潜崩）,青海省,西宁市,大通回族土族自治县,崩塌,未分级,蓝色,101.555556,37.070833,78.0,0.0,258.0,,,"降雨,人为因素",,0
630121020035,青山乡东山村2社不稳定斜坡（潜崩）,青海省,西宁市,大通回族土族自治县,崩塌,未分级,蓝色,101.564167,37.072778,49.0,0.0,186.0,,,"降雨,人为因素",,0
630121020036,极乐乡宗阳村3社不稳定斜坡（潜崩）,青海省,西宁市,大通回族土族自治县,崩塌,未分级,橙色,101.554722,36.977222,56.0,0.0,231.0,,,"降雨,人为因素",,0
630121020037,景阳镇兰冲村3、4社不稳定斜坡（潜崩）,青海省,西宁市,大通回族土族自治县,崩塌,未分级,蓝色,101.607917,36.830889,53.0,0.0,195.0,,,"人为因素,降雨",,0
630121020038,景阳镇后山村1社不稳定斜坡（潜崩）,青海省,西宁市,大通回族土族自治县,崩塌,未分级,蓝色,101.640278,36.8225,81.0,0.0,540.0,,,"降雨,人为因素",,0
630121020039,石山乡小沟村2社不稳定斜坡（潜崩）,青海省,西宁市,大通回族土族自治县,崩塌,未分级,未定级,101.771944,36.896111,42.0,0.0,126.0,,,"降雨,人为因素",,0
630121020057,极乐乡白崖村2社潜在滑坡,青海省,西宁市,大通回族土族自治县,滑坡,未分级,未定级,101.515833,36.986389,35.0,8.0,120.0,,,"地震,降雨",,0
630121020058,东峡镇多隆村1社潜在滑坡,青海省,西宁市,大通回族土族自治县,滑坡,未分级,橙色,101.76,37.006111,65.0,15.0,215.0,,,"地震,降雨",,0
630121020059,朔北乡旧拉浪村潜在滑坡,青海省,西宁市,大通回族土族自治县,滑坡,未分级,未定级,101.742222,36.972222,40.0,10.0,110.0,,,"地震,降雨",,0
630121020063,大通县桥头镇新城村6社潜在滑坡,青海省,西宁市,大通回族土族自治县,滑坡,小,蓝色,101.674444,36.893056,30.0,7.0,90.0,,,"地震,降雨,切坡",,0
630121020159,黄家寨镇索家村1社32号崩塌,青海省,西宁市,大通回族土族自治县,崩塌,未分级,未定级,101.676111,36.861389,0.0,0.0,0.0,,,,,0
630121020200,黄家寨镇台台村5村73号崩塌,青海省,西宁市,大通回族土族自治县,崩塌,未分级,未定级,101.681389,36.829722,0.0,0.0,0.0,,,,,0
630121030036,塔尔镇格达庄村泥石流,青海省,西宁市,大通回族土族自治县,泥石流,未分级,未定级,101.654167,37.056944,0.0,0.0,0.0,,,,,0
630121030047,塔尔镇泉沟村泥石流,青海省,西宁市,大通回族土族自治县,泥石流,未分级,未定级,101.666417,37.033083,0.0,0.0,0.0,,,,,0
630121030065,塔尔镇药草滩村前河沟泥石流,青海省,西宁市,大通回族土族自治县,泥石流,未分级,红色,101.663611,37.0675,200.0,45.0,500.0,,,"暴雨/强降雨,冰雪融水",,0
630121030066,塔尔镇格达庄村狼家坡沟泥石流,青海省,西宁市,大通回族土族自治县,泥石流,未分级,黄色,101.655,37.058889,159.0,35.0,532.0,,,"暴雨/强降雨,冰雪融水",,0
630121030096,桥头镇后子沟村西北侧泥石流,青海省,西宁市,大通回族土族自治县,泥石流,未分级,蓝色,101.64,36.888889,421.0,80.0,1000.0,,,"暴雨/强降雨,冰雪融水",,0
630121030098,朔北乡白崖沟村泥石流,青海省,西宁市,大通回族土族自治县,泥石流,未分级,黄色,101.778333,36.963333,250.0,48.0,800.0,,,"暴雨/强降雨,冰雪融水",,0
630121030099,良教乡石庄村泥石流,青海省,西宁市,大通回族土族自治县,泥石流,未分级,未定级,101.620556,36.988333,0.0,0.0,0.0,,,,,0
630121030109,青山乡马场村1社不郎沟泥石流,青海省,西宁市,大通回族土族自治县,泥石流,未分级,未定级,101.501667,37.098889,251.0,0.0,750.0,,,"地震,降雨,人为因素",,0
630121030110,新庄镇峡门村1、2社泥石流,青海省,西宁市,大通回族土族自治县,泥石流,未分级,未定级,101.578889,37.071667,89.0,0.0,306.0,,,"地震,降雨,人为因素",,0
630121991352,东峡镇田家沟村24号风险区,青海省,西宁市,大通回族土族自治县,滑坡,未分级,未定级,101.822222,37.070556,0.0,0.0,0.0,,,,,0
630121991413,城关镇张家庄风险区,青海省,西宁市,大通回族土族自治县,滑坡,未分级,未定级,101.508611,37.063889,0.0,0.0,0.0,,,,,0
630121992009,青林乡中庄村1#滑坡风险区,青海省,西宁市,大通回族土族自治县,滑坡,未分级,未定级,101.420556,37.070278,0.0,0.0,0.0,,,,,0
630122000072,海子沟乡水滩村不稳定斜坡（潜滑）,青海省,西宁市,未知,滑坡,未分级,未定级,101.608944,36.733083,0.0,0.0,0.0,,,,,0
630122000088,上新庄镇下台村不稳定斜坡（潜滑）,青海省,西宁市,未知,滑坡,未分级,蓝色,101.559183,36.449742,0.0,0.0,0.0,,,,,0
630122000094,甘河滩镇页沟村6社1号潜在滑坡,青海省,西宁市,未知,滑坡,未分级,未定级,101.554167,36.593889,48.0,0.0,155.0,,,"地震,降雨,人为因素",,0
630122000095,甘河滩镇页沟村6社2号潜在滑坡,青海省,西宁市,未知,滑坡,小,未定级,101.553333,36.595278,36.0,0.0,116.0,,,"地震,降雨,人为因素",,0
630122000168,共和镇花勒城村不稳定斜坡（潜滑）,青海省,西宁市,未知,滑坡,未分级,未定级,101.425842,36.596075,0.0,0.0,0.0,,,,,0
630122000222,湟中区海子沟乡杨库托潜在滑坡,青海省,西宁市,未知,滑坡,中,蓝色,101.63,36.72,88.0,0.0,300.0,,,"切坡,地震,降雨",,0
630122000467,上五庄镇小寺沟村5社潜在滑坡,青海省,西宁市,未知,滑坡,未分级,蓝色,101.418333,36.804444,55.0,0.0,156.0,,,"地震,降雨,人为因素",,0
630122000472,湟中区上五庄拉目台村潜在滑坡,青海省,西宁市,未知,滑坡,中,未定级,101.413889,36.815,50.0,0.0,150.0,,,地震,,0
630122000483,拦隆口镇白崖村3社潜在滑坡,青海省,西宁市,未知,滑坡,未分级,未定级,101.418056,36.771944,22.0,0.0,75.0,,,"地震,降雨",,0
630122000487,拦隆口镇图巴营村2社潜在滑坡,青海省,西宁市,未知,滑坡,未分级,蓝色,101.480278,36.801667,83.0,0.0,266.0,,,"地震,降雨,人为因素",,0
630122000489,拦隆口镇麻子营村潜在滑坡,青海省,西宁市,未知,滑坡,未分级,蓝色,101.495833,36.828333,40.0,9.0,115.0,,,"地震,降雨",,0
630122000492,多巴镇国寺营村东侧潜在滑坡,青海省,西宁市,未知,滑坡,未分级,蓝色,101.435556,36.656667,36.0,8.0,80.0,,,"地震,降雨",,0
630122000493,多巴镇国营寺村西侧潜在滑坡,青海省,西宁市,未知,滑坡,未分级,未定级,101.438889,36.654722,42.0,9.0,120.0,,,"地震,降雨",,0
630122000496,多巴镇中村1社(拉沙学校左侧)潜在滑坡,青海省,西宁市,未知,滑坡,未分级,未定级,101.433889,36.720278,42.0,0.0,126.0,,,"地震,降雨,人为因素",,0
630122000497,湟中区多巴镇拉卡山村5社潜在滑坡,青海省,西宁市,未知,滑坡,未分级,未定级,101.425833,36.701389,52.0,0.0,180.0,,,"地震,降雨",,0
630122000499,多巴镇杨家台2社潜在滑坡,青海省,西宁市,未知,滑坡,未分级,蓝色,101.458611,36.714722,40.0,0.0,118.0,,,"降雨,地震,人为因素",,0
630122000515,李家山镇李家山村潜在滑坡,青海省,西宁市,未知,滑坡,未分级,蓝色,101.559722,36.807222,40.0,9.0,125.0,,,"地震,降雨",,0
630122000516,李家山镇河湾村2、4潜在滑坡,青海省,西宁市,未知,滑坡,未分级,蓝色,101.569722,36.771944,51.0,0.0,195.0,,,"降雨,人为因素,地震",,0
630122000517,湟中区海子沟乡阿滩村2号潜在滑坡,青海省,西宁市,未知,滑坡,中,蓝色,101.597222,36.766944,45.0,15.0,201.0,,,"地震,降雨",,0
630122000518,湟中区海子乡总堡村4社潜在滑坡,青海省,西宁市,未知,滑坡,未分级,蓝色,101.626389,36.765833,32.0,0.0,120.0,,,"地震,降雨,切坡",,0
630122000519,湟中区海子沟普通村潜在滑坡,青海省,西宁市,未知,滑坡,小,未定级,101.598056,36.774444,28.0,6.0,82.0,,,"地震,降雨",,0
630122000520,湟中区海子沟乡古城村4社潜在滑坡,青海省,西宁市,未知,滑坡,中,未定级,101.676111,36.764444,50.0,12.0,180.0,,,"地震,降雨",,0
630122000522,海子沟乡薛姓庄村马家沟潜在滑坡,青海省,西宁市,未知,滑坡,未分级,未定级,101.683889,36.720833,35.0,0.0,126.0,,,"地震,降雨,人为因素",,0
630122000524,湟中区海子沟乡松家沟村潜在滑坡,青海省,西宁市,未知,滑坡,小,未定级,101.698889,36.755,32.0,0.0,120.0,,,"地震,降雨",,0
630122000531,土门关镇年坝村潜在滑坡,青海省,西宁市,未知,滑坡,未分级,未定级,101.663889,36.475,43.0,0.0,165.0,,,"人为因素,降雨,地震",,0
630122000532,田家寨镇尕院村2社潜在滑坡,青海省,西宁市,未知,滑坡,未分级,蓝色,101.758056,36.348611,35.0,8.0,90.0,,,"降雨,地震",,0
630122000535,田家寨镇阳坡村2、4社1号潜在滑坡,青海省,西宁市,未知,滑坡,未分级,蓝色,101.774167,36.36,44.0,10.0,120.0,,,"地震,降雨",,0
630122000537,田家寨镇李家庄村1社潜在滑坡,青海省,西宁市,未知,滑坡,未分级,红色,101.78,36.370278,30.0,7.0,75.0,,,"降雨,地震",,0
630122000542,田家寨镇永丰村2社潜在滑坡,青海省,西宁市,未知,滑坡,未分级,蓝色,101.783611,36.382222,45.0,0.0,120.0,,,"降雨,地震,人为因素",,0
630122000550,田家寨镇沙尔湾村5号潜在滑坡,青海省,西宁市,未知,滑坡,未分级,蓝色,101.841944,36.386111,52.0,11.0,190.0,,,"地震,降雨",,0
630122000565,田家寨镇上营二村5、6社潜在滑坡,青海省,西宁市,未知,滑坡,未分级,蓝色,101.813056,36.37,44.0,10.0,120.0,,,"地震,降雨",,0
630122000572,田家寨镇下营一村3号潜在滑坡,青海省,西宁市,未知,滑坡,未分级,未定级,101.758333,36.4025,45.0,10.0,155.0,,,"降雨,地震",,0
630122000578,田家寨镇泗洱河村1号滑坡,青海省,西宁市,未知,滑坡,未分级,蓝色,101.769444,36.437222,48.0,10.0,160.0,,,"地震,降雨",,0
630122000581,田家寨镇谢家台村1社潜在滑坡,青海省,西宁市,未知,滑坡,未分级,蓝色,101.7775,36.430833,33.0,0.0,96.0,,,"地震,降雨,人为因素",,0
630122000582,田家寨镇窑洞村1号滑坡,青海省,西宁市,未知,滑坡,未分级,未定级,101.773889,36.411944,35.0,8.0,145.0,,,"地震,降雨",,0
630122000583,田家寨镇窑洞村2号潜在滑坡,青海省,西宁市,未知,滑坡,未分级,未定级,101.777778,36.418889,32.0,8.0,140.0,,,"地震,降雨",,0
630122000585,田家寨镇谢家村1、2、3社潜在滑坡,青海省,西宁市,未知,滑坡,未分级,蓝色,101.867778,36.516944,36.0,8.0,90.0,,,"地震,降雨",,0
630122000597,共和镇新庄村潜在滑坡,青海省,西宁市,未知,滑坡,未分级,未定级,101.441389,36.581111,35.0,8.0,90.0,,,"地震,降雨",,0
630122000600,共和镇河湾村1社潜在滑坡,青海省,西宁市,未知,滑坡,未分级,未定级,101.444722,36.583889,48.0,0.0,182.0,,,"地震,降雨,人为因素",,0
630122000601,共和镇河湾村2社潜在滑坡,青海省,西宁市,未知,滑坡,未分级,未定级,101.447778,36.586667,78.0,0.0,280.0,,,"地震,降雨,人为因素",,0
630122000604,共和镇上马申村4社潜在滑坡,青海省,西宁市,未知,滑坡,未分级,红色,101.465278,36.6125,34.0,0.0,108.0,,,"地震,降雨,人为因素",,0
630122000605,共和镇上马申村2社潜在滑坡,青海省,西宁市,未知,滑坡,未分级,未定级,101.464444,36.609444,42.0,9.0,100.0,,,"地震,降雨",,0
630122000616,共和镇押必村2社潜在滑坡,青海省,西宁市,未知,滑坡,未分级,未定级,101.456944,36.568611,75.0,0.0,240.0,,,"地震,降雨,人为因素",,0
630122000622,湟中区大才乡占林村潜在滑坡,青海省,西宁市,未知,滑坡,小,未定级,101.455,36.490833,40.0,0.0,125.0,,,"地震,降雨",,0
630122000623,大才乡小磨石沟村1、2社潜在滑坡,青海省,西宁市,未知,滑坡,未分级,未定级,101.452778,36.494444,48.0,0.0,168.0,,,"地震,降雨,人为因素",,0
630122000629,大才乡下后沟村3社潜在滑坡,青海省,西宁市,未知,滑坡,未分级,未定级,101.455278,36.518611,82.0,0.0,220.0,,,"降雨,地震,人为因素",,0
630122000633,甘河滩镇东湾村1社1号潜在滑坡,青海省,西宁市,未知,滑坡,未分级,未定级,101.505833,36.539722,44.0,0.0,132.0,,,"地震,降雨,人为因素",,0
630122000635,甘河滩镇前跃村3、4社1号滑坡,青海省,西宁市,未知,滑坡,小,黄色,101.553611,36.544722,46.0,10.0,162.0,,,"地震,降雨,人为因素",,0
630122000636,甘河滩镇前跃村4社2号滑坡,青海省,西宁市,未知,滑坡,未分级,蓝色,101.555278,36.544444,42.0,0.0,135.0,,,"地震,降雨,人为因素",,0
630122000638,甘河滩镇页沟村3社潜在滑坡,青海省,西宁市,未知,滑坡,未分级,未定级,101.548333,36.603333,40.0,0.0,138.0,,,"地震,降雨,人为因素",,0
630122000640,甘河滩镇页沟村1社潜在滑坡,青海省,西宁市,未知,滑坡,未分级,未定级,101.541111,36.6125,46.0,0.0,162.0,,,"地震,降雨,人为因素",,0
630122000641,甘河滩镇元山村2、6社潜在滑坡,青海省,西宁市,未知,滑坡,未分级,未定级,101.534722,36.551944,44.0,0.0,160.0,,,"降雨,地震,人为因素",,0
630122000643,湟中区共和镇东岔村潜在滑坡,青海省,西宁市,未知,滑坡,小,未定级,101.354167,36.525,80.0,0.0,255.0,,,"地震,降雨",,0
630122000648,鲁沙尔镇孔家村1社潜在滑坡,青海省,西宁市,未知,滑坡,未分级,蓝色,101.590278,36.502222,18.0,4.0,45.0,,,"地震,降雨",,0
630122000651,海子沟乡沟脑村3社潜滑,青海省,西宁市,未知,滑坡,未分级,蓝色,101.676389,36.721111,45.0,10.0,100.0,,,"地震,降雨",,0
630122000652,甘河滩镇东湾村1社2号潜在滑坡,青海省,西宁市,未知,滑坡,未分级,未定级,101.503611,36.54,30.0,0.0,80.0,,,"地震,降雨,人为因素",,0
630122000660,鲁沙尔镇西山村5社潜在滑坡,青海省,西宁市,未知,滑坡,未分级,蓝色,101.563056,36.497222,40.0,0.0,142.0,,,"地震,降雨,人为因素",,0
630122000661,湟中区上新庄镇上台村潜在滑坡,青海省,西宁市,未知,滑坡,中,未定级,101.544444,36.448611,64.0,0.0,220.0,,,,,0
630122001007,大才乡前沟村不稳定斜坡（潜滑）,青海省,西宁市,未知,滑坡,未分级,未定级,101.464169,36.502783,0.0,0.0,0.0,,,,,0
630122001008,大才乡上措隆村不稳定斜坡（潜滑）,青海省,西宁市,未知,滑坡,未分级,未定级,101.490278,36.505,0.0,0.0,0.0,,,,,0
630122001009,多巴镇扎麻隆村1社不稳定斜坡（潜滑）,青海省,西宁市,未知,滑坡,未分级,未定级,101.438056,36.663894,0.0,0.0,0.0,,,,,0
630122010001,多巴镇幸福村2社滑坡,青海省,西宁市,未知,滑坡,未分级,未定级,101.534444,36.696389,0.0,0.0,0.0,,,,,0
630122010004,鲁沙尔镇青一村1社滑坡,青海省,西宁市,未知,滑坡,未分级,红色,101.559167,36.489722,40.0,0.0,100.0,,,"地震,降雨,人为因素",,0
630122010027,共和镇苏尔吉村不稳定斜坡（潜滑）,青海省,西宁市,未知,滑坡,未分级,未定级,101.419742,36.615022,0.0,0.0,0.0,,,,,0
630122010038,大才乡中沟村4社不稳定斜坡（潜滑）,青海省,西宁市,未知,滑坡,未分级,未定级,101.464722,36.518892,0.0,0.0,0.0,,,,,0
630122010039,大才乡下白崖村不稳定斜坡（潜滑）,青海省,西宁市,未知,滑坡,未分级,黄色,101.454222,36.524806,0.0,0.0,0.0,,,,,0
630122010107,海子沟中庄村滑坡,青海省,西宁市,未知,滑坡,未分级,蓝色,101.636694,36.720056,0.0,0.0,0.0,,,,,0
630122010117,群加乡唐阳村3、4社滑坡,青海省,西宁市,未知,滑坡,未分级,蓝色,101.69,36.262222,70.0,15.0,200.0,,,"地震,降雨",,0
630122010138,湟中区大才乡前沟村13社潜在滑坡,青海省,西宁市,未知,滑坡,未分级,未定级,101.476667,36.4975,42.0,0.0,160.0,,,"地震,降雨",,0
630122010149,海子沟乡中庄村滑坡,青海省,西宁市,未知,滑坡,未分级,蓝色,101.649444,36.721944,32.0,0.0,96.0,,,"地震,降雨,人为因素",,0
630122010152,上五庄镇合尔盖村不稳定斜坡（潜滑）,青海省,西宁市,未知,滑坡,未分级,蓝色,101.425717,36.823761,75.0,0.0,180.0,,,"降雨,人为因素",,0
630122010153,拦隆口镇伯什营村一社2号不稳定斜坡（潜滑）,青海省,西宁市,未知,滑坡,未分级,未定级,101.4873,36.812669,53.0,0.0,200.0,,,"降雨,人为因素",,0
630122010154,拦隆口镇邦隆村二社不稳定斜坡（潜滑）,青海省,西宁市,未知,滑坡,未分级,未定级,101.462783,36.727377,41.0,0.0,140.0,,,"降雨,人为因素",,0
630122010155,多巴镇目尔加村三社不稳定斜坡（潜滑）,青海省,西宁市,未知,滑坡,未分级,未定级,101.426072,36.71175,44.0,0.0,300.0,,,"降雨,人为因素",,0
630122010156,多巴镇杨家台村不稳定斜坡（潜滑）,青海省,西宁市,未知,滑坡,未分级,未定级,101.461378,36.714392,44.0,0.0,300.0,,,"降雨,人为因素",,0
630122010157,西堡镇羊圈沟村不稳定斜坡（潜滑）,青海省,西宁市,未知,滑坡,未分级,未定级,101.567883,36.578356,72.0,0.0,240.0,,,"地震,降雨,人为因素",,0
630122010158,李家山镇甘家村不稳定斜坡（潜滑）,青海省,西宁市,未知,滑坡,未分级,红色,101.562225,36.795508,81.0,0.0,276.0,,,"降雨,人为因素",,0
630122010159,海子沟乡海南庄村不稳定斜坡（潜滑）,青海省,西宁市,未知,滑坡,未分级,橙色,101.667194,36.748006,31.0,0.0,80.0,,,"降雨,人为因素",,0
630122010160,鲁沙尔镇红崖沟村1号不稳定斜坡（潜滑）,青海省,西宁市,未知,滑坡,未分级,未定级,101.591892,36.478917,25.0,0.0,500.0,,,"地震,降雨,人为因素",,0
630122010161,总寨镇下细沟村1号不稳定斜坡（潜滑）,青海省,西宁市,城中区,滑坡,未分级,未定级,101.706758,36.500456,50.0,0.0,100.0,,,"地震,降雨,人为因素",,0
630122010162,土门关镇青峰村1号不稳定斜坡（潜滑）,青海省,西宁市,未知,滑坡,未分级,未定级,101.718711,36.438875,150.0,0.0,630.0,,,"地震,降雨,人为因素",,0
630122010163,土门关镇土门关村2号不稳定斜坡（潜滑）,青海省,西宁市,未知,滑坡,未分级,未定级,101.716667,36.441944,35.0,0.0,210.0,,,"地震,降雨,人为因素",,0
630122010164,土门关镇王沟尔村4社斜坡（潜滑）,青海省,西宁市,未知,滑坡,未分级,未定级,101.681717,36.424847,107.0,0.0,267.0,,,"地震,降雨,人为因素",,0
630122010165,土门关镇红岭村不稳定斜坡（潜滑）,青海省,西宁市,未知,滑坡,未分级,未定级,101.698064,36.442506,35.0,0.0,210.0,,,"地震,降雨,人为因素",,0
630122010166,田家寨镇下洛麻村2号不稳定斜坡（潜滑）,青海省,西宁市,未知,滑坡,未分级,未定级,101.821114,36.412783,96.0,0.0,300.0,,,"地震,降雨,人为因素",,0
630122010167,田家寨镇上洛麻村7社3号不稳定斜坡(潜滑),青海省,西宁市,未知,滑坡,未分级,未定级,101.823611,36.403056,72.0,0.0,150.0,,,"地震,降雨,人为因素",,0
630122010168,田家寨镇黄蒿台村不稳定斜坡（潜滑）,青海省,西宁市,未知,滑坡,未分级,未定级,101.724175,36.380283,60.0,0.0,160.0,,,"地震,降雨,人为因素",,0
630122010169,共和镇尕庄村不稳定斜坡（潜滑）,青海省,西宁市,未知,滑坡,未分级,未定级,101.421458,36.570522,75.0,0.0,220.0,,,"地震,降雨,人为因素",,0
630122010170,共和镇后营村2号不稳定斜坡（潜滑）,青海省,西宁市,未知,滑坡,未分级,未定级,101.404678,36.5976,45.0,0.0,150.0,,,"地震,降雨,人为因素",,0
630122010171,大才乡大磨石沟村1号不稳定斜坡（潜滑）,青海省,西宁市,未知,滑坡,未分级,未定级,101.441389,36.504444,63.0,0.0,280.0,,,"地震,降雨,人为因素",,0
630122010172,大才乡大磨石沟村2号不稳定斜坡（潜滑）,青海省,西宁市,未知,滑坡,未分级,蓝色,101.450461,36.505283,28.0,0.0,85.0,,,"地震,降雨,人为因素",,0
630122010173,大才乡扎子村不稳定斜坡（潜滑）,青海省,西宁市,未知,滑坡,未分级,蓝色,101.434658,36.519761,58.0,0.0,145.0,,,"地震,人为因素,降雨",,0
630122010174,大才乡小沟尔村不稳定斜坡（潜滑）,青海省,西宁市,未知,滑坡,未分级,蓝色,101.447967,36.523631,36.0,0.0,82.0,,,"地震,降雨,人为因素",,0
630122010175,汉东乡冰沟村2号滑坡,青海省,西宁市,未知,滑坡,未分级,未定级,101.4765,36.555803,84.0,0.0,245.0,,,"地震,降雨,人为因素",,0
630122010176,汉东乡冰沟村1号滑坡,青海省,西宁市,未知,滑坡,未分级,未定级,101.478556,36.560244,70.0,0.0,230.0,,,"地震,降雨,人为因素",,0
630122010177,甘河滩镇李九村滑坡,青海省,西宁市,未知,滑坡,未分级,未定级,101.562975,36.538786,89.0,0.0,270.0,,,"地震,降雨,人为因素",,0
630122010178,海子沟乡陶家村不稳定斜坡（潜在滑坡）,青海省,西宁市,未知,滑坡,未分级,未定级,101.608122,36.767208,50.0,0.0,200.0,,,"降雨,人为因素",,0
630122010179,共和镇转嘴村4社滑坡,青海省,西宁市,未知,滑坡,未分级,未定级,101.444028,36.625778,68.0,0.0,225.0,,,"地震,人为因素,降雨",,0
630122010180,鲁沙尔镇红崖沟村2号不稳定斜坡（潜滑）,青海省,西宁市,未知,滑坡,未分级,未定级,101.5776,36.476808,25.0,0.0,60.0,,,"地震,降雨,人为因素",,0
630122010181,上五庄镇大寺村1社不稳定斜坡（潜滑）,青海省,西宁市,未知,滑坡,未分级,未定级,101.377275,36.804647,35.0,0.0,56.0,,,"人为因素,降雨",,0
630122010182,多巴镇扎麻隆滑坡,青海省,西宁市,未知,滑坡,未分级,蓝色,101.463572,36.666072,125.0,0.0,680.0,,,"降雨,人为因素",,0
630122010183,多巴镇中村一社滑坡,青海省,西宁市,未知,滑坡,未分级,未定级,101.441339,36.720928,136.0,0.0,210.0,,,"降雨,人为因素",,0
630122010184,拦隆口镇民族村一社滑坡,青海省,西宁市,未知,滑坡,未分级,蓝色,101.453892,36.753367,125.0,0.0,456.0,,,"人为因素,降雨",,0
630122010185,拦隆口镇民联五社（峡口村）滑坡（潜在滑坡）,青海省,西宁市,未知,滑坡,未分级,橙色,101.435747,36.752675,80.0,0.0,360.0,,,"降雨,人为因素",,0
630122010186,上五庄镇黄草沟滑坡,青海省,西宁市,未知,滑坡,未分级,蓝色,101.384039,36.820694,39.0,0.0,150.0,,,"降雨,人为因素",,0
630122010187,李家山镇芍麻营村滑坡,青海省,西宁市,未知,滑坡,未分级,红色,101.538131,36.813819,30.0,0.0,90.0,,,"降雨,人为因素",,0
630122010188,海子沟乡景家庄村三社滑坡,青海省,西宁市,未知,滑坡,未分级,蓝色,101.639061,36.739719,85.0,0.0,340.0,,,"降雨,人为因素",,0
630122010189,海子沟乡东沟村东侧滑坡,青海省,西宁市,未知,滑坡,未分级,蓝色,101.634467,36.774083,45.0,0.0,180.0,,,"降雨,人为因素",,0
630122010190,海子沟乡甘家沟村二社滑坡,青海省,西宁市,未知,滑坡,未分级,蓝色,101.615467,36.781542,55.0,0.0,220.0,,,"地震,降雨,人为因素",,0
630122010191,海子沟乡王家庄村二社滑坡,青海省,西宁市,未知,滑坡,未分级,蓝色,101.654877,36.706856,140.0,28.0,560.0,,,"降雨,人为因素",,0
630122010192,鲁沙尔镇赵家庄滑坡,青海省,西宁市,未知,滑坡,未分级,未定级,101.584731,36.530283,52.0,0.0,180.0,,,"地震,降雨,人为因素",,0
630122010193,共和镇转嘴村8社滑坡,青海省,西宁市,未知,滑坡,未分级,未定级,101.439428,36.631861,35.0,0.0,102.0,,,"地震,降雨,人为因素",,0
630122010194,共和镇转嘴村3社滑坡,青海省,西宁市,未知,滑坡,未分级,未定级,101.4391,36.629536,37.0,0.0,116.0,,,"地震,人为因素,降雨",,0
630122010195,大才乡小沟尔村4社滑坡,青海省,西宁市,未知,滑坡,未分级,黄色,101.4427,36.521972,42.0,0.0,170.0,,,"地震,降雨,人为因素",,0
630122010196,西堡镇丰台沟村1社滑坡,青海省,西宁市,未知,滑坡,未分级,未定级,101.567086,36.562828,59.0,0.0,162.0,,,"地震,降雨,人为因素",,0
630122010197,上新庄镇班麻坡村滑坡,青海省,西宁市,未知,滑坡,未分级,未定级,101.651522,36.466667,60.0,0.0,120.0,,,"地震,降雨,人为因素",,0
630122010198,上五庄镇华科村七社滑坡,青海省,西宁市,未知,滑坡,未分级,未定级,101.405208,36.837964,70.0,0.0,195.0,,,"降雨,人为因素",,0
630122010199,上五庄镇友爱村1号滑坡,青海省,西宁市,未知,滑坡,未分级,红色,101.412539,36.828414,70.0,0.0,330.0,,,"降雨,人为因素",,0
630122010200,上五庄镇友爱村2号滑坡,青海省,西宁市,未知,滑坡,未分级,红色,101.41825,36.827314,48.0,0.0,240.0,,,"降雨,人为因素",,0
630122010201,上五庄镇北纳村滑坡,青海省,西宁市,未知,滑坡,未分级,未定级,101.438592,36.855261,40.0,0.0,105.0,,,"降雨,人为因素",,0
630122010202,上五庄镇大寺村1社滑坡,青海省,西宁市,未知,滑坡,未分级,未定级,101.364528,36.802894,43.0,0.0,180.0,,,"降雨,人为因素",,0
630122010203,上五庄镇大寺村2社滑坡,青海省,西宁市,未知,滑坡,未分级,未定级,101.335858,36.799847,32.0,0.0,80.0,,,"降雨,人为因素",,0
630122010204,上五庄镇拉尔宁6社滑坡,青海省,西宁市,未知,滑坡,未分级,蓝色,101.355541,36.83093,30.0,0.0,100.0,,,"降雨,人为因素",,0
630122010205,拦隆口镇上红土沟村滑坡,青海省,西宁市,未知,滑坡,未分级,未定级,101.465525,36.824431,36.0,0.0,196.0,,,"降雨,人为因素",,0
630122010206,多巴镇沙窝尔滑坡,青海省,西宁市,未知,滑坡,未分级,未定级,101.541839,36.677381,96.0,0.0,380.0,,,"降雨,人为因素",,0
630122010207,多巴镇中村二社滑坡,青海省,西宁市,未知,滑坡,未分级,未定级,101.449856,36.718231,31.0,0.0,100.0,,,"降雨,人为因素",,0
630122010208,多巴镇杨家台村滑坡,青海省,西宁市,未知,滑坡,未分级,蓝色,101.457361,36.712833,48.0,0.0,280.0,,,"降雨,人为因素",,0
630122010209,李家山镇阴坡村滑坡,青海省,西宁市,未知,滑坡,未分级,未定级,101.556342,36.825578,75.0,0.0,180.0,,,"降雨,人为因素",,0
630122010210,李家山镇大路村滑坡,青海省,西宁市,未知,滑坡,未分级,未定级,101.5589,36.815803,48.0,0.0,96.0,,,"降雨,人为因素",,0
630122010211,海子沟乡薛姓庄刘家沟滑坡,青海省,西宁市,未知,滑坡,未分级,未定级,101.706625,36.725353,31.0,0.0,120.0,,,"降雨,人为因素",,0
630122010212,鲁沙尔镇东山村滑坡,青海省,西宁市,未知,滑坡,未分级,橙色,101.566111,36.496667,50.0,0.0,180.0,,,"地震,降雨,人为因素",,0
630122010213,鲁沙尔镇水滩村滑坡,青海省,西宁市,未知,滑坡,未分级,蓝色,101.605283,36.520842,70.0,0.0,192.0,,,"地震,降雨,人为因素",,0
630122010214,上新庄镇白路村滑坡,青海省,西宁市,未知,滑坡,未分级,未定级,101.529239,36.445736,40.0,0.0,108.0,,,"地震,降雨,人为因素",,0
630122010215,上新庄镇上台村滑坡,青海省,西宁市,未知,滑坡,未分级,未定级,101.551008,36.449956,49.0,0.0,116.0,,,"地震,降雨,人为因素",,0
630122010216,田家寨镇台口子村滑坡,青海省,西宁市,未知,滑坡,未分级,未定级,101.813894,36.400836,31.0,0.0,108.0,,,"地震,降雨,人为因素",,0
630122010217,田家寨镇流水沟村滑坡,青海省,西宁市,未知,滑坡,未分级,未定级,101.716667,36.377222,86.0,0.0,143.0,,,"地震,降雨,人为因素",,0
630122010218,共和镇新庄村5社滑坡,青海省,西宁市,未知,滑坡,未分级,未定级,101.452958,36.575314,24.0,0.0,58.0,,,"地震,降雨,人为因素",,0
630122010219,共和镇河湾村滑坡,青海省,西宁市,未知,滑坡,未分级,未定级,101.456572,36.594361,32.0,0.0,189.0,,,"地震,降雨,人为因素",,0
630122010220,汉东乡前窑村3社滑坡,青海省,西宁市,未知,滑坡,未分级,未定级,101.474722,36.581667,70.0,0.0,170.0,,,"地震,人为因素,降雨",,0
630122010221,土门关镇王沟尔村二社滑坡,青海省,西宁市,未知,滑坡,未分级,未定级,101.69,36.431944,40.0,0.0,110.0,,,"地震,降雨,人为因素",,0
630122010222,大才乡上措隆村滑坡,青海省,西宁市,未知,滑坡,未分级,红色,101.489786,36.505183,90.0,0.0,300.0,,,"地震,降雨,人为因素",,0
630122010223,鲁沙尔镇红崖沟村滑坡,青海省,西宁市,未知,滑坡,未分级,未定级,101.575267,36.476658,75.0,0.0,240.0,,,"地震,降雨,人为因素",,0
630122010224,多巴镇洛尔洞村3社滑坡,青海省,西宁市,未知,滑坡,未分级,红色,101.454722,36.692778,26.0,0.0,105.0,,,"降雨,地震,人为因素",,0
630122010225,拦隆口镇民联村2社滑坡,青海省,西宁市,未知,滑坡,未分级,蓝色,101.441389,36.753889,45.0,0.0,140.0,,,"地震,降雨,人为因素",,0
630122010232,海子沟乡中庄村乡政府东侧滑坡,青海省,西宁市,未知,滑坡,未分级,蓝色,101.656944,36.716389,60.0,0.0,1000.0,,,"地震,降雨,人为因素",,0
630122010234,共和镇山甲村5社滑坡,青海省,西宁市,未知,滑坡,未分级,未定级,101.404444,36.630556,60.0,0.0,176.0,,,"地震,降雨,人为因素",,0
630122010243,汉东乡下麻尔村一社滑坡,青海省,西宁市,未知,滑坡,未分级,蓝色,101.480556,36.5725,75.0,6.0,220.0,,,"地震,降雨",,0
630122010246,湟中区大才乡前沟村8社潜在滑坡,青海省,西宁市,未知,滑坡,中,未定级,101.464444,36.502778,24.0,6.0,78.0,,,"地震,降雨",,0
630122010249,甘河滩乡坡东村五社潜在滑坡,青海省,西宁市,未知,滑坡,未分级,蓝色,101.530556,36.603889,30.0,7.0,80.0,,,"地震,降雨",,0
630122010250,甘河滩镇坡西村2、6社滑坡,青海省,西宁市,未知,滑坡,未分级,蓝色,101.515556,36.594722,30.0,0.0,80.0,,,"地震,降雨,人为因素",,0
630122010264,湟中区上五庄镇合尔盖村潜在滑坡,青海省,西宁市,未知,滑坡,小,未定级,101.426944,36.823056,25.0,0.0,75.0,,,"地震,降雨",,0
630122010265,湟中区上五庄镇合尔盖村东侧潜在滑坡,青海省,西宁市,未知,滑坡,小,未定级,101.428333,36.820833,50.0,0.0,125.0,,,"地震,降雨",,0
630122010267,上五庄镇华科村1、8社滑坡,青海省,西宁市,未知,滑坡,未分级,未定级,101.404167,36.835556,82.0,0.0,215.0,,,"地震,降雨,人为因素",,0
630122010270,拦隆口镇南门二村滑坡,青海省,西宁市,未知,滑坡,未分级,蓝色,101.432222,36.744167,45.0,0.0,140.0,,,"地震,降雨,人为因素",,0
630122010272,拦隆口镇白崖村1社潜在滑坡,青海省,西宁市,未知,滑坡,未分级,未定级,101.426667,36.774444,24.0,0.0,80.0,,,"地震,降雨,人为因素",,0
630122010273,拦隆口镇中庄村1社滑坡,青海省,西宁市,未知,滑坡,未分级,蓝色,101.446944,36.783333,70.0,0.0,200.0,,,"地震,降雨,人为因素",,0
630122010276,拦隆口镇上庄村2社滑坡,青海省,西宁市,未知,滑坡,未分级,未定级,101.443889,36.790556,30.0,0.0,93.0,,,"地震,降雨,人为因素",,0
630122010282,拦隆口镇白崖二村1社潜在滑坡,青海省,西宁市,未知,滑坡,未分级,未定级,101.53,36.781111,77.0,0.0,210.0,,,"地震,降雨,人为因素",,0
630122010283,拦隆口镇白崖二村2社潜在滑坡,青海省,西宁市,未知,滑坡,未分级,未定级,101.53,36.783611,26.0,0.0,85.0,,,"地震,降雨,人为因素",,0
630122010284,多巴镇羊圈村4社滑坡,青海省,西宁市,未知,滑坡,未分级,蓝色,101.480833,36.670278,45.0,0.0,146.0,,,"地震,降雨,人为因素",,0
630122010285,多巴镇拉卡山2号滑坡,青海省,西宁市,未知,滑坡,未分级,未定级,101.431667,36.701389,55.0,0.0,200.0,,,"地震,降雨,人为因素",,0
630122010286,多巴镇洛尔洞村4社崩塌,青海省,西宁市,未知,崩塌,未分级,蓝色,101.453333,36.69,28.0,0.0,196.0,,,"地震,降雨,人为因素",,0
630122010289,多巴镇玉拉村滑坡,青海省,西宁市,未知,滑坡,未分级,蓝色,101.530833,36.708056,90.0,0.0,360.0,,,"降雨,地震,人为因素",,0
630122010298,鲁沙尔镇陈家滩村1社滑坡,青海省,西宁市,未知,滑坡,未分级,红色,101.608056,36.491111,19.0,0.0,95.0,,,"降雨,人为因素,地震",,0
630122010306,田家寨镇谢家台村1社滑坡,青海省,西宁市,未知,滑坡,未分级,未定级,101.776667,36.429444,25.0,6.0,69.0,,,"降雨,地震",,0
630122010309,共和镇河湾村3社潜在滑坡,青海省,西宁市,未知,滑坡,未分级,未定级,101.45,36.593056,36.0,0.0,135.0,,,"地震,降雨,人为因素",,0
630122010313,大才乡上后沟村1、6社滑坡,青海省,西宁市,未知,滑坡,未分级,未定级,101.448889,36.515833,40.0,0.0,150.0,,,"地震,降雨,人为因素",,0
630122010314,大才乡上白崖村5社滑坡,青海省,西宁市,未知,滑坡,未分级,红色,101.449722,36.525556,65.0,0.0,150.0,,,"地震,降雨,人为因素",,0
630122010327,湟中区大才乡下白崖村6社潜在滑坡,青海省,西宁市,未知,滑坡,小,未定级,101.446667,36.527222,33.0,0.0,135.0,,,"地震,降雨",,0
630122010336,鲁沙尔镇青二村2社(上后街)滑坡,青海省,西宁市,未知,滑坡,未分级,未定级,101.555833,36.492222,19.0,0.0,65.0,,,"地震,降雨,人为因素",,0
630122010338,田家寨镇马昌沟村潜在滑坡,青海省,西宁市,未知,滑坡,未分级,蓝色,101.838889,36.428056,40.0,9.0,80.0,,,"地震,降雨",,0
630122020030,上五庄镇拉尔宁村2社不稳定斜坡(潜滑),青海省,西宁市,未知,崩塌,未分级,黄色,101.361236,36.827528,33.0,0.0,160.0,,,"降雨,人为因素",,0
630122020031,上五庄镇拉尔宁村1社不稳定斜坡（潜崩）,青海省,西宁市,未知,崩塌,未分级,未定级,101.363772,36.830111,47.0,0.0,220.0,,,"降雨,人为因素",,0
630122020032,拦隆口镇红林村不稳定斜坡（潜崩）,青海省,西宁市,未知,崩塌,未分级,未定级,101.44446,36.741099,36.0,0.0,123.0,,,"降雨,人为因素",,0
630122020033,拦隆口镇图巴营村1号不稳定斜坡（潜崩）,青海省,西宁市,未知,崩塌,未分级,橙色,101.477569,36.798322,49.0,0.0,220.0,,,"降雨,人为因素",,0
630122020034,拦隆口镇白崖二村不稳定斜坡（潜崩）,青海省,西宁市,未知,崩塌,未分级,黄色,101.527569,36.781656,38.0,0.0,180.0,,,"降雨,人为因素",,0
630122020035,李家山镇吉家村2社不稳定斜坡（潜崩）,青海省,西宁市,未知,崩塌,未分级,未定级,101.563814,36.787069,30.0,0.0,72.0,,,"降雨,人为因素",,0
630122020036,海子沟乡总堡村1号不稳定斜坡（潜崩）,青海省,西宁市,未知,崩塌,未分级,未定级,101.618525,36.759861,30.0,0.0,120.0,,,"降雨,人为因素",,0
630122020037,总寨镇清河村不稳定斜坡（潜崩）,青海省,西宁市,城中区,崩塌,未分级,未定级,101.661111,36.521667,30.0,0.0,200.0,,,"地震,降雨,人为因素",,0
630122020038,总寨镇下细沟村2号不稳定斜坡（潜崩）,青海省,西宁市,城中区,崩塌,未分级,红色,101.709603,36.500219,50.0,0.0,100.0,,,"地震,降雨,人为因素",,0
630122020039,土门关镇林马村不稳定斜坡（潜崩）,青海省,西宁市,未知,崩塌,未分级,未定级,101.6625,36.463333,50.0,0.0,180.0,,,"降雨,人为因素,地震",,0
630122020040,田家寨镇上洛麻村5社不稳定斜坡（潜崩）,青海省,西宁市,未知,崩塌,未分级,蓝色,101.829167,36.396944,60.0,0.0,218.0,,,"地震,降雨,人为因素",,0
630122020041,共和镇萱麻湾村不稳定斜坡（潜崩）,青海省,西宁市,未知,崩塌,未分级,未定级,101.44695,36.558614,41.0,0.0,110.0,,,"地震,降雨,人为因素",,0
630122020042,大才乡占林村不稳定斜坡（潜崩）,青海省,西宁市,未知,崩塌,未分级,红色,101.454617,36.489436,91.0,0.0,290.0,,,"地震,降雨,人为因素",,0
630122020043,汉东乡冰沟村不稳定斜坡（潜崩）,青海省,西宁市,未知,崩塌,未分级,未定级,101.466089,36.557894,36.0,0.0,120.0,,,"地震,降雨,人为因素",,0
630122020044,拦隆口镇邦隆村三社不稳定斜坡（潜崩）,青海省,西宁市,未知,崩塌,未分级,未定级,101.463264,36.732822,94.0,0.0,460.0,,,"人为因素,降雨",,0
630122020045,拦隆口镇民联二社不稳定斜坡（潜崩）,青海省,西宁市,未知,崩塌,未分级,未定级,101.4392,36.7556,56.0,0.0,240.0,,,"降雨,人为因素",,0
630122020081,拦隆口镇卡阳村崩塌,青海省,西宁市,未知,崩塌,未分级,蓝色,101.425,36.785833,26.0,0.0,85.0,,,"地震,降雨,人为因素",,0
630122020083,鲁沙尔镇南门村3社崩塌,青海省,西宁市,未知,滑坡,未分级,未定级,101.548611,36.489722,60.0,0.0,196.0,,,"地震,降雨,人为因素",,0
630122020084,鲁沙尔镇南门村2社崩塌,青海省,西宁市,未知,滑坡,小,未定级,101.545833,36.487778,22.0,5.0,90.0,,,"地震,降雨,人为因素",,0
630122020098,上新庄镇海马沟村1、2社崩塌,青海省,西宁市,未知,滑坡,未分级,未定级,101.574722,36.458333,48.0,0.0,170.0,,,"地震,降雨,人为因素",,0
630122020114,共和镇前营村1社崩塌,青海省,西宁市,未知,崩塌,未分级,未定级,101.400556,36.593333,29.0,0.0,100.0,,,"地震,降雨,人为因素",,0
630123000055,申中乡韭菜沟村2社潜在滑坡,青海省,西宁市,湟源县,滑坡,未分级,未定级,101.205556,36.731111,38.0,0.0,162.0,,,"地震,降雨,人为因素",,0
630123000061,城关镇董家庄西不稳定斜坡(潜滑),青海省,西宁市,湟源县,滑坡,未分级,红色,101.270833,36.670556,0.0,0.0,0.0,,,,,0
630123000180,大华镇三条沟村1社潜在滑坡,青海省,西宁市,湟源县,滑坡,未分级,红色,101.158889,36.683056,20.0,0.0,126.0,,,"人为因素,降雨,地震",,0
630123000181,大华镇拉卓奈村潜在滑坡,青海省,西宁市,湟源县,滑坡,未分级,未定级,101.19463,36.696045,94.0,21.0,265.0,,,"地震,降雨",,0
630123000182,大华镇石崖庄村3社北侧潜在滑坡,青海省,西宁市,湟源县,滑坡,未分级,红色,101.169444,36.685583,80.0,18.0,245.0,,,"地震,降雨,切坡",,0
630123000183,湟源县大华镇塔湾村4社潜在滑坡,青海省,西宁市,湟源县,滑坡,未分级,未定级,101.120833,36.7,60.0,0.0,195.0,,,"降雨,地震",,0
630123000192,湟源县大华镇崖根村1社潜在滑坡,青海省,西宁市,湟源县,滑坡,小,未定级,101.125,36.700556,64.0,18.0,240.0,,,"地震,降雨",,0
630123000198,大华镇后庄村南侧1#潜在滑坡,青海省,西宁市,湟源县,滑坡,未分级,红色,101.13078,36.707395,35.0,8.0,110.0,,,"地震,降雨",,0
630123000200,大华镇纳隆沟3社潜在滑坡,青海省,西宁市,湟源县,滑坡,未分级,红色,101.152222,36.730556,75.0,0.0,288.0,,,"地震,降雨,人为因素",,0
630123000203,申中乡后沟村潜在滑坡,青海省,西宁市,湟源县,滑坡,未分级,红色,101.209215,36.782073,46.0,10.0,130.0,,,"地震,切坡",,0
630123000205,申中乡申中村9社潜在滑坡,青海省,西宁市,湟源县,滑坡,未分级,红色,101.206944,36.746944,50.0,0.0,150.0,,,"地震,人为因素,降雨",,0
630123000212,巴燕乡下胡丹村下段潜在滑坡,青海省,西宁市,湟源县,滑坡,未分级,红色,101.159921,36.758746,62.0,14.0,190.0,,,"地震,降雨",,0
630123000238,东峡乡拉尔贯村潜在滑坡,青海省,西宁市,湟源县,滑坡,未分级,未定级,101.388056,36.755278,72.0,16.0,200.0,,,"地震,降雨,切坡",,0
630123000252,巴燕乡下胡丹村上中段潜在滑坡,青海省,西宁市,湟源县,滑坡,未分级,未定级,101.162363,36.763094,85.0,17.0,290.0,,,"地震,降雨",,0
630123000263,湟源县申中乡俊家庄2社、3社潜在滑坡,青海省,西宁市,湟源县,滑坡,未分级,未定级,101.155833,36.740833,44.0,0.0,195.0,,,"地震,降雨,切坡",,0
630123000272,湟源县波航乡波航村潜在滑坡,青海省,西宁市,湟源县,滑坡,小,未定级,101.21,36.664167,585.0,0.0,2000.0,,,"地震,降雨,切坡",,0
630123010014,东峡乡响河村4社滑坡,青海省,西宁市,湟源县,滑坡,未分级,橙色,101.361111,36.6725,76.0,0.0,306.0,,,"地震,降雨,人为因素",,0
630123010015,和平乡隆和村1社滑坡,青海省,西宁市,湟源县,滑坡,未分级,未定级,101.266667,36.560279,43.0,0.0,216.0,,,"降雨,人为因素",,0
630123010016,波航乡纳隆村2社滑坡,青海省,西宁市,湟源县,滑坡,未分级,未定级,101.2375,36.667222,25.0,0.0,90.0,,,"地震,降雨,人为因素",,0
630123010022,巴燕乡上胡丹村3社滑坡,青海省,西宁市,湟源县,滑坡,未分级,未定级,101.1675,36.785,13.0,0.0,72.0,,,"人为因素,降雨,地震",,0
630123020008,巴燕镇巴燕中学不稳定斜坡(潜滑),青海省,西宁市,湟源县,滑坡,未分级,未定级,101.132503,36.765561,0.0,0.0,0.0,,,,,0
630123020020,巴燕乡巴燕村2社不稳定斜坡（潜崩）,青海省,西宁市,湟源县,崩塌,未分级,未定级,101.13,36.7675,48.0,0.0,216.0,,,"地震,降雨,人为因素",,0
630123020021,城关镇北极山村不稳定斜坡（潜崩）,青海省,西宁市,湟源县,崩塌,未分级,未定级,101.272222,36.692778,64.0,0.0,570.0,,,"地震,降雨,人为因素",,0
630123020022,城关镇涌兴村不稳定斜坡（潜崩）,青海省,西宁市,湟源县,崩塌,未分级,未定级,101.266944,36.693333,55.0,0.0,234.0,,,"降雨,人为因素",,0
630123020023,城关镇涌兴村西南不稳定斜坡（潜崩）,青海省,西宁市,湟源县,崩塌,未分级,未定级,101.253889,36.692361,20.0,0.0,90.0,,,"降雨,人为因素",,0
630123020024,东峡乡石崖庄村1社崩塌,青海省,西宁市,湟源县,崩塌,未分级,未定级,101.324167,36.676944,52.0,0.0,54.0,,,"地震,降雨,人为因素",,0
630123030047,寺寨乡小寺村1、2社泥石流,青海省,西宁市,湟源县,泥石流,未分级,蓝色,101.03,36.751114,0.0,0.0,0.0,,,,,0
630123030072,城关镇鹿石干沟泥石流,青海省,西宁市,湟源县,泥石流,未分级,红色,101.278056,36.692222,4.0,0.0,96.0,,,"地震,降雨,人为因素",,0
630123030076,大华镇莫布拉村1社泥石流,青海省,西宁市,湟源县,泥石流,未分级,蓝色,101.18,36.691667,94.0,0.0,360.0,,,"地震,降雨,人为因素",,0
630123030081,东峡乡石崖庄村沙沟泥石流,青海省,西宁市,湟源县,泥石流,未分级,未定级,101.3275,36.675833,250.0,48.0,800.0,,,"暴雨/强降雨,冰雪融水",,0
630123030083,东峡镇下脖项村盘道沟泥石流,青海省,西宁市,湟源县,泥石流,未分级,未定级,101.395833,36.670833,45.0,10.0,300.0,,,暴雨/强降雨,,0
630123030141,城关镇尕庄村4社石墙沟泥石流,青海省,西宁市,湟源县,泥石流,未分级,黄色,101.28,36.679444,150.0,0.0,450.0,,,"地震,降雨,人为因素",,0
630222010001,民和县巴州镇大焦土村下湾滑坡,青海省,海东市,民和回族土族自治县,滑坡,未分级,未定级,102.836111,36.176,33.0,0.0,200.0,,,"降雨,人为因素,地震",,0
630222010002,民和县前河乡上湾村提工社滑坡,青海省,海东市,民和回族土族自治县,滑坡,未分级,未定级,102.839572,35.956389,21.0,0.0,29.2,,,"降雨,人为因素,地震",,0
630222010003,甘沟乡东山村鲍力社滑坡,青海省,海东市,民和回族土族自治县,滑坡,未分级,未定级,102.771178,35.931839,187.0,0.0,321.0,,,"地震,降雨,人为因素",,0
630222010004,民和县满坪镇陈家村一社滑坡,青海省,海东市,民和回族土族自治县,滑坡,未分级,未定级,102.741472,36.006528,132.0,0.0,169.1,,,"降雨,人为因素,地震",,0
630222010005,民和县转导乡陈家沟滑坡,青海省,海东市,民和回族土族自治县,滑坡,未分级,未定级,102.963944,35.99,24.0,0.0,23.1,,,"降雨,人为因素,地震",,0
630222010006,忙回潜在滑坡,青海省,海东市,民和回族土族自治县,滑坡,未分级,未定级,102.755528,35.929139,128.0,0.0,382.5,,,"降雨,人为因素,地震",,0
630222010007,民和县杏儿乡胜利村新建社滑坡,青海省,海东市,民和回族土族自治县,滑坡,未分级,未定级,102.698636,35.919003,36.0,0.0,36.0,,,"降雨,人为因素,地震",,0
630222010008,民和县下山村老庄滑坡,青海省,海东市,民和回族土族自治县,滑坡,未分级,未定级,102.625222,36.278028,23.0,0.0,6.0,,,"降雨,人为因素,地震",,0
630222010009,民和县巴州镇老官坪阳山滑坡,青海省,海东市,民和回族土族自治县,滑坡,未分级,未定级,102.741,36.248944,21.0,0.0,180.0,,,"降雨,人为因素,地震",,0
630222010010,上湾滑坡,青海省,海东市,民和回族土族自治县,滑坡,未分级,未定级,102.829917,36.199389,23.0,0.0,120.0,,,"地震,降雨,人为因素",,0
630222010011,红台滑坡,青海省,海东市,民和回族土族自治县,滑坡,未分级,未定级,102.776917,35.877194,168.0,0.0,496.0,,,"地震,降雨,人为因素",,0
630222010012,民和县大庄乡塔卧一社滑坡,青海省,海东市,民和回族土族自治县,滑坡,未分级,未定级,102.884444,36.12175,47.0,0.0,60.0,,,"降雨,人为因素",,0
630222010013,峡门镇阳坡村滑坡,青海省,海东市,民和回族土族自治县,滑坡,未分级,未定级,102.549819,36.249222,188.0,0.0,400.0,,,"地震,降雨,人为因素",,0
630222010014,民和县前河乡田家3社及木家寺1、2社滑坡,青海省,海东市,民和回族土族自治县,滑坡,未分级,未定级,102.837611,35.998167,206.0,0.0,307.0,,,"降雨,人为因素,地震",,0
630222010015,前河乡木家寺红土村滑坡,青海省,海东市,民和回族土族自治县,滑坡,未分级,未定级,102.840833,35.980833,64.0,0.0,62.0,,,"降雨,人为因素,地震",,0
630222010016,民和县峡门镇甘池村湾子社滑坡,青海省,海东市,民和回族土族自治县,滑坡,未分级,未定级,102.512486,36.256536,140.0,0.0,87.0,,,"降雨,人为因素",,0
630222010017,民和县大庄乡幸福湾滑坡,青海省,海东市,民和回族土族自治县,滑坡,未分级,未定级,102.920306,36.144111,81.0,0.0,86.5,,,"降雨,人为因素,地震",,0
630222010018,李家岭滑坡,青海省,海东市,民和回族土族自治县,滑坡,未分级,蓝色,102.884889,36.096556,43.0,0.0,26.5,,,"降雨,人为因素,地震",,0
630222010019,下门台滑坡,青海省,海东市,民和回族土族自治县,滑坡,未分级,未定级,102.792,36.183139,32.0,0.0,200.0,,,"地震,降雨,人为因素",,0
630222010020,大泉1#滑坡群,青海省,海东市,民和回族土族自治县,滑坡,未分级,未定级,102.824389,36.176167,50.0,0.0,100.0,,,"地震,降雨,人为因素",,0
630222010021,大焦土下社泉湾滑坡,青海省,海东市,民和回族土族自治县,滑坡,未分级,未定级,102.809042,36.180467,31.0,0.0,30.0,,,"地震,降雨,人为因素",,0
630222010022,别落村2#滑坡,青海省,海东市,民和回族土族自治县,滑坡,未分级,未定级,102.786639,35.922361,500.0,0.0,745.0,,,"地震,降雨,人为因素",,0
630222010023,民和县川口镇米拉湾滑坡,青海省,海东市,民和回族土族自治县,滑坡,未分级,橙色,102.781806,36.326806,35.0,0.0,70.0,,,"降雨,人为因素,地震",,0
630222010024,民和县峡门镇甘池村山背后社滑坡,青海省,海东市,民和回族土族自治县,滑坡,未分级,未定级,102.512486,36.256536,140.0,0.0,87.0,,,"降雨,人为因素,地震",,0
630222010025,民和县李二堡镇乐园一社周界滑坡,青海省,海东市,民和回族土族自治县,滑坡,未分级,未定级,102.657667,36.239056,56.0,0.0,100.8,,,"降雨,地震",,0
630222010026,韩家岭滑坡,青海省,海东市,民和回族土族自治县,滑坡,未分级,未定级,102.929528,36.110231,31.0,0.0,16.8,,,"降雨,人为因素,地震",,0
630222010027,尕藏潜在滑坡,青海省,海东市,民和回族土族自治县,滑坡,未分级,未定级,102.764139,35.932639,187.0,0.0,606.0,,,"降雨,人为因素,地震",,0
630222010028,面都池滑坡,青海省,海东市,民和回族土族自治县,滑坡,未分级,未定级,102.874389,36.124083,105.0,0.0,458.0,,,"地震,降雨,人为因素",,0
630222010029,民和县总堡乡申巴村关路社滑坡,青海省,海东市,民和回族土族自治县,滑坡,未分级,蓝色,102.807278,36.1675,35.0,0.0,93.0,,,"降雨,人为因素,地震",,0
630222010030,民和县峡门镇李家庄村河边社滑坡,青海省,海东市,民和回族土族自治县,滑坡,未分级,未定级,102.582806,36.270667,150.0,0.0,150.0,,,"降雨,人为因素,地震",,0
630222010031,民和县大庄乡尖滩滑坡,青海省,海东市,民和回族土族自治县,滑坡,未分级,未定级,102.908167,36.147611,65.0,0.0,82.3,,,"降雨,人为因素,地震",,0
630222010032,民和县前河乡木家寺二关滑坡,青海省,海东市,民和回族土族自治县,滑坡,未分级,未定级,102.840972,35.980833,46.0,0.0,43.4,,,"降雨,人为因素",,0
630222010033,民和县马营镇下阳山滑坡,青海省,海东市,民和回族土族自治县,滑坡,未分级,未定级,102.804722,36.104833,97.0,0.0,303.0,,,"降雨,人为因素",,0
630222010034,民和县前河乡下湾村马家山滑坡,青海省,海东市,民和回族土族自治县,滑坡,未分级,未定级,102.865111,35.961056,31.0,0.0,58.0,,,"降雨,人为因素,地震",,0
630222010035,民和县隆治乡铁家二社滑坡,青海省,海东市,民和回族土族自治县,滑坡,未分级,未定级,102.949631,36.197394,25.0,0.0,34.0,,,"降雨,人为因素,地震",,0
630222020001,民和县老官坪阳山潜在崩塌,青海省,海东市,民和回族土族自治县,崩塌,未分级,未定级,102.738611,36.248611,30.0,0.0,118.0,,,"降雨,人为因素,地震",,0
630222020002,合合社潜在崩塌,青海省,海东市,民和回族土族自治县,崩塌,未分级,未定级,102.822,36.036028,173.0,0.0,240.0,,,"降雨,人为因素,地震",,0
630222020003,古鄯镇张家湾潜在崩塌,青海省,海东市,民和回族土族自治县,崩塌,未分级,未定级,102.781389,36.095833,34.0,0.0,96.0,,,"降雨,人为因素,地震",,0
630222030002,康家台泥石流,青海省,海东市,民和回族土族自治县,泥石流,未分级,未定级,102.579556,36.265,43.0,0.0,70.0,,,降雨,,0
630222030003,峡门镇孙家庄村后头沟泥石流,青海省,海东市,民和回族土族自治县,泥石流,未分级,未定级,102.569936,36.253953,192.0,0.0,404.0,,,降雨,,0
630222030004,甲子山新村泥石流,青海省,海东市,民和回族土族自治县,泥石流,未分级,未定级,102.745167,36.144333,174.0,0.0,817.0,,,降雨,,0
630222030005,西范沟泥石流,青海省,海东市,民和回族土族自治县,泥石流,未分级,未定级,102.753667,36.215528,2843.0,0.0,2995.0,,,"地震,降雨,人为因素",,0
632121000063,石灰窑乡下河滩村不稳定斜坡（潜在崩塌）,青海省,海东市,平安区,崩塌,小,未定级,101.876922,36.3623,29.0,0.0,245.0,,,"地震,降雨,人为因素",,0
632121000070,东崖头庄村崩塌,青海省,海东市,平安区,崩塌,未分级,未定级,102.022497,36.457419,20.0,0.0,64.5,,,"降雨,人为因素",,0
632121000071,石灰窑乡黎明村不稳定斜坡（潜在崩塌）,青海省,海东市,平安区,崩塌,小,未定级,101.924914,36.409003,20.0,4.0,821.0,,,"地震,降雨,人为因素",,0
632121000074,沙沟乡仲庄潜在崩塌,青海省,海东市,平安区,崩塌,未分级,未定级,102.040603,36.377714,21.0,0.0,52.0,,,"降雨,人为因素",,0
632121000075,古城乡总门村不稳定斜坡（潜在崩塌）,青海省,海东市,平安区,崩塌,未分级,红色,101.991869,36.381867,30.0,0.0,127.0,,,"地震,降雨,人为因素",,0
632121000078,古城乡且尔甫村不稳定斜坡（潜在崩塌）,青海省,海东市,平安区,崩塌,小,黄色,101.983247,36.351625,50.0,0.0,298.0,,,"地震,降雨,人为因素",,0
632121000080,古城乡山城村不稳定斜坡（潜在崩塌）,青海省,海东市,平安区,崩塌,未分级,蓝色,102.008519,36.372356,0.0,0.0,0.0,,,,,0
632121000082,古城乡北村潜在崩塌,青海省,海东市,平安区,崩塌,未分级,蓝色,101.993508,36.377858,56.0,0.0,172.0,,,"降雨,人为因素",,0
632121000084,上马家二社潜在崩塌,青海省,海东市,平安区,崩塌,未分级,蓝色,102.090058,36.380286,25.0,0.0,56.0,,,"人为因素,降雨",,0
632121000085,沙沟乡树尔湾潜在崩塌,青海省,海东市,平安区,崩塌,未分级,未定级,102.034761,36.408189,60.0,0.0,123.0,,,"降雨,人为因素",,0
632121000086,窑房东侧2号崩塌,青海省,海东市,平安区,崩塌,未分级,未定级,102.095469,36.486847,48.0,0.0,184.4,,,"降雨,人为因素",,0
632121000087,沙沟乡侯家庄村不稳定斜坡（潜在崩塌）,青海省,海东市,平安区,崩塌,大,未定级,102.037404,36.388283,42.0,0.0,360.0,,,"地震,降雨,人为因素",,0
632121000089,沙沟乡桑昂村不稳定斜坡（潜在崩塌）,青海省,海东市,平安区,崩塌,小,未定级,102.049236,36.371547,27.0,0.0,136.0,,,"降雨,切坡,地震",,0
632121000091,古城乡角加潜在崩塌,青海省,海东市,平安区,崩塌,未分级,未定级,102.014481,36.350864,79.0,0.0,246.0,,,"降雨,人为因素",,0
632121000092,古城乡古城潜在崩塌,青海省,海东市,平安区,崩塌,未分级,蓝色,101.997133,36.361753,28.0,0.0,76.0,,,"降雨,人为因素",,0
632121000093,白家村1号崩塌（潜在滑坡）,青海省,海东市,平安区,崩塌,未分级,未定级,102.061528,36.445944,47.0,0.0,120.0,,,"降雨,人为因素",,0
632121000096,三合镇庄科村不稳定斜坡（潜在崩塌）,青海省,海东市,平安区,崩塌,小,未定级,101.925364,36.348808,18.0,5.0,97.0,,,"降雨,地震,人为因素",,0
632121000113,沙沟乡牙扎村西山根不稳定斜坡（潜在崩塌）,青海省,海东市,平安区,崩塌,小,黄色,102.060689,36.352161,62.0,20.0,412.0,,,"地震,降雨",,0
632121010050,平安区巴藏沟乡下郭尔村滑坡,青海省,海东市,平安区,滑坡,未分级,未定级,102.096667,36.374167,159.0,0.0,185.0,,,"降雨,人为因素,地震",,0
632121010051,平安区洪水泉乡黄鼠湾村滑坡,青海省,海东市,平安区,滑坡,未分级,未定级,101.924444,36.462222,57.0,0.0,48.2,,,"降雨,人为因素,地震",,0
632121010052,平安区石灰窑乡阳坡山村大涧坡滑坡,青海省,海东市,平安区,滑坡,未分级,未定级,101.876111,36.390556,34.0,0.0,31.8,,,"降雨,人为因素,地震",,0
632121010053,平安区石灰窑乡索若滑坡,青海省,海东市,平安区,滑坡,未分级,未定级,101.888333,36.360556,97.0,0.0,168.7,,,"降雨,人为因素,地震",,0
632121010055,巴藏沟乡李家滑坡(房子头滑坡）,青海省,海东市,平安区,滑坡,未分级,蓝色,102.088458,36.401408,132.0,0.0,430.0,,,"降雨,人为因素",,0
632121010070,石灰窑乡窑庄村不稳定斜坡（潜在崩塌）,青海省,海东市,平安区,崩塌,未分级,红色,101.889336,36.4103,21.0,0.0,102.0,,,"地震,降雨,人为因素",,0
632121010086,平安街道白家村崩塌,青海省,海东市,平安区,崩塌,未分级,红色,102.065669,36.44795,22.0,0.0,112.0,,,"地震,降雨,切坡",,0
632121030011,平安街道张家寨村黄刺半沟泥石流,青海省,海东市,平安区,泥石流,未分级,蓝色,102.135258,36.516139,77.0,21.0,2500.0,,,暴雨/强降雨,,0
632121030020,小峡街道下红庄村沙沟泥石流,青海省,海东市,平安区,泥石流,未分级,蓝色,101.989647,36.503703,150.0,1.0,2500.0,,,暴雨/强降雨,,0
632121030024,小峡街道西上庄村黑沟泥石流,青海省,海东市,平安区,泥石流,未分级,未定级,101.925197,36.541389,32.0,1.0,237.0,,,暴雨/强降雨,,0
632121030025,干沟泥石流,青海省,海东市,平安区,泥石流,未分级,红色,101.932219,36.546206,102.0,0.0,10830.0,,,降雨,,0
632122000066,巴州镇朵家岭潜在崩塌,青海省,海东市,民和回族土族自治县,崩塌,未分级,未定级,102.713667,36.212389,80.0,0.0,123.0,,,"地震,降雨,人为因素",,0
632122000102,峡门镇赵家山大路社1#潜在崩塌,青海省,海东市,民和回族土族自治县,崩塌,未分级,未定级,102.529714,36.270656,21.0,0.0,68.5,,,"降雨,人为因素",,0
632122000105,青海省海东市民和县前河乡丰一村甘家社潜在崩塌,青海省,海东市,民和回族土族自治县,崩塌,中,蓝色,102.815728,35.9914,33.0,0.0,79.0,,,,,0
632122000106,马场垣乡下川口村高长坡潜在崩塌,青海省,海东市,民和回族土族自治县,崩塌,未分级,未定级,103.012056,36.250372,31.0,0.0,40.0,,,"地震,降雨,人为因素",,0
632122000108,青海省海东市民和县巴州镇黄池村阳山社潜在滑坡,青海省,海东市,民和回族土族自治县,滑坡,小,红色,102.799883,36.175861,46.0,0.0,90.0,,,"地震,降雨",,0
632122000110,西沟乡马家河村马家河社潜在崩塌,青海省,海东市,民和回族土族自治县,崩塌,未分级,黄色,102.694778,36.190472,59.0,0.0,91.0,,,"地震,降雨,人为因素",,0
632122000116,古鄯镇刘家湾村七社潜在崩塌,青海省,海东市,民和回族土族自治县,崩塌,未分级,未定级,102.758767,36.16675,56.0,0.0,78.0,,,"地震,降雨,人为因素",,0
632122000119,青海省海东市民和县西沟乡大滩村中坪社潜在崩塌,青海省,海东市,民和回族土族自治县,崩塌,小,红色,102.688278,36.162028,26.0,0.0,24.0,,,"地震,降雨,人为因素",,0
632122000120,古鄯镇菜籽湾村一社潜在崩塌,青海省,海东市,民和回族土族自治县,崩塌,未分级,红色,102.840367,36.055814,59.0,0.0,85.0,,,"地震,降雨,人为因素",,0
632122000122,青海省海东市民和县古鄯镇柴沟村6社潜在崩塌,青海省,海东市,民和回族土族自治县,崩塌,小,红色,102.744714,36.147936,20.0,4.0,35.0,,,"地震,降雨",,0
632122000124,青海省海东市民和县古鄯镇菜子湾村4社潜在崩塌,青海省,海东市,民和回族土族自治县,崩塌,中,红色,102.795586,36.103175,40.0,0.0,105.0,,,"地震,降雨",,0
632122000127,青海省海东市民和县古鄯镇菜子湾村2社 潜在崩塌,青海省,海东市,民和回族土族自治县,崩塌,中,蓝色,102.774206,36.087864,38.0,0.0,80.0,,,"地震,降雨",,0
632122000162,峡门镇赵家山奔坑坡潜在崩塌,青海省,海东市,民和回族土族自治县,崩塌,未分级,未定级,102.527031,36.267536,28.0,0.0,85.0,,,"降雨,地震,人为因素",,0
632122000165,峡门镇峡门村白崖根社潜在崩塌,青海省,海东市,民和回族土族自治县,崩塌,未分级,未定级,102.537278,36.254111,61.0,0.0,70.0,,,"地震,降雨,人为因素",,0
632122000169,青海省海东市民和县川口镇东垣村6社潜在崩塌,青海省,海东市,民和回族土族自治县,崩塌,中,未定级,102.843806,36.330114,95.0,0.0,220.0,,,"地震,降雨",,0
632122010211,巴州镇大山滑坡,青海省,海东市,民和回族土族自治县,滑坡,未分级,未定级,102.827222,36.174889,60.0,0.0,140.0,,,"地震,降雨,人为因素,其它",,0
632122010231, 杏儿藏族自治乡大庄滑坡,青海省,海东市,民和回族土族自治县,滑坡,未分级,未定级,102.716306,35.881083,265.0,0.0,831.0,,,"地震,降雨,人为因素",,0
632122010303,前河乡丰二村洼地沟滑坡,青海省,海东市,民和回族土族自治县,滑坡,未分级,橙色,102.822689,35.976036,214.0,0.0,150.0,,,"地震,降雨,人为因素",,0
632122010307,前河乡卧田村卧田滑坡,青海省,海东市,民和回族土族自治县,滑坡,未分级,黄色,102.833361,35.960361,344.0,0.0,339.75,,,"地震,降雨,人为因素",,0
632122010316,前河乡台其村那土滑坡,青海省,海东市,民和回族土族自治县,滑坡,未分级,未定级,102.819028,35.991194,214.0,0.0,57.8,,,"降雨,地震,人为因素",,0
632122010318,前河乡台其村塔坡滑坡,青海省,海东市,民和回族土族自治县,滑坡,未分级,橙色,102.806944,35.996833,40.0,0.0,67.8,,,"地震,降雨,人为因素",,0
632122010320,川口镇川口村二道沟滑坡,青海省,海东市,民和回族土族自治县,滑坡,未分级,未定级,102.848083,36.301083,35.0,0.0,150.0,,,"降雨,人为因素,其它",,0
632122010342,满坪镇集场村三社滑坡,青海省,海东市,民和回族土族自治县,滑坡,未分级,黄色,102.787028,36.024611,33.0,0.0,47.2,,,"地震,降雨,人为因素",,0
632122010346, 甘沟乡东山村一社滑坡,青海省,海东市,民和回族土族自治县,滑坡,未分级,未定级,102.783872,35.938078,26.0,0.0,26.7,,,"地震,降雨,人为因素",,0
632122010350,青海省海东市民和县官亭镇赵木川村滑坡,青海省,海东市,民和回族土族自治县,滑坡,未分级,红色,102.751553,35.841483,20.0,0.0,28.9,,,"地震,降雨",,0
632122010361,古鄯镇七里寺村一社滑坡,青海省,海东市,民和回族土族自治县,滑坡,未分级,蓝色,102.840367,36.102386,77.0,0.0,126.0,,,"地震,降雨,人为因素",,0
632122010363,古鄯镇柴沟村三社潜在崩塌,青海省,海东市,民和回族土族自治县,崩塌,未分级,未定级,102.755625,36.149711,41.0,0.0,75.0,,,"地震,降雨,人为因素",,0
632122010383,阳龙坪村六社潜在崩塌,青海省,海东市,民和回族土族自治县,崩塌,未分级,橙色,102.765122,36.00735,25.0,0.0,39.2,,,"地震,降雨,人为因素",,0
632122010384,中川乡朱家岭村七社滑坡,青海省,海东市,民和回族土族自治县,滑坡,未分级,红色,102.786317,35.941383,20.0,0.0,37.0,,,"地震,降雨,人为因素",,0
632122010386,前河乡张家寺村黄土湾滑坡	,青海省,海东市,民和回族土族自治县,滑坡,未分级,未定级,102.787394,35.998228,33.0,0.0,72.1,,,"地震,降雨,人为因素",,0
632122010393,青海省海东市民和县民和县前河乡上湾村白崖社滑坡,青海省,海东市,民和回族土族自治县,滑坡,大,红色,102.849928,35.966739,22.0,4.0,35.3,,,"地震,降雨,人为因素",,0
632122010402,川口镇南庄子村白马庙潜在崩塌,青海省,海东市,民和回族土族自治县,崩塌,未分级,未定级,102.805947,36.321831,24.0,0.0,275.0,,,"地震,降雨,人为因素",,0
632122030019,青海省海东市民和县中川乡美二村泥石流,青海省,海东市,民和回族土族自治县,泥石流,未分级,蓝色,102.894522,35.860586,52.0,13.0,131.0,,,降雨,,0
632123000366,蒲台乡雷盛家村侯家庄斜坡（LD24）,青海省,海东市,乐都区,滑坡,小,未定级,102.497558,36.417489,29.0,8.0,45.0,,,"降雨,人为因素",,0
632123000367,瞿昙镇台沿村1社潜在崩塌(LD10),青海省,海东市,乐都区,崩塌,未分级,蓝色,102.239347,36.287508,32.0,16.0,90.0,,,"降雨,人为因素",,0
632123000376,洪水镇大寨子村2-5社板桥湾潜在滑坡（LD40）,青海省,海东市,乐都区,滑坡,未分级,蓝色,102.533333,36.371944,45.0,9.0,110.0,,,"地震,降雨,人为因素",,0
632123000377,洪水镇大寨子萱麻沟后坡不稳定斜坡（LD47）,青海省,海东市,乐都区,滑坡,小,未定级,102.538989,36.388908,105.0,0.0,40.0,,,"地震,降雨",,0
632123000379,瞿昙镇浪下村1社潜在崩塌(LD13),青海省,海东市,乐都区,崩塌,未分级,未定级,102.258411,36.310081,45.0,11.0,150.0,,,"降雨,人为因素",,0
632123000411,马营乡牙合村二社潜在崩塌LD52,青海省,海东市,乐都区,崩塌,未分级,未定级,102.642333,36.537778,60.0,0.0,150.0,,,"地震,降雨,人为因素",,0
632123000414,马营乡姜洞村下浪卡潜在崩塌（LD48）,青海省,海东市,乐都区,崩塌,未分级,橙色,102.633444,36.552778,75.0,18.0,80.0,,,"地震,降雨,人为因素",,0
632123000419,马营乡卡拉村二社潜在崩塌（LD51）,青海省,海东市,乐都区,崩塌,未分级,红色,102.627667,36.55075,60.0,0.0,150.0,,,"地震,降雨,人为因素",,0
632123000428,峰堆乡营盘村一、二社潜在崩塌LD63,青海省,海东市,乐都区,崩塌,未分级,红色,102.262833,36.366,82.0,0.0,190.0,,,"地震,降雨,人为因素",,0
632123000429,城台乡衙门庄村二社潜在崩塌LD56,青海省,海东市,乐都区,崩塌,未分级,红色,102.199444,36.362833,45.0,0.0,160.0,,,"地震,人为因素,降雨",,0
632123000430,城台乡新庄村三社加力岗潜在崩塌LD57,青海省,海东市,乐都区,崩塌,未分级,蓝色,102.190611,36.353167,21.0,0.0,80.0,,,"地震,降雨,人为因素",,0
632123000431,城台乡拉甘驿村三社护坡潜在崩塌LD55,青海省,海东市,乐都区,崩塌,未分级,蓝色,102.211944,36.373889,30.0,0.0,95.0,,,"地震,降雨,人为因素",,0
632123000432,城台乡城子村潜在崩塌LD54,青海省,海东市,乐都区,崩塌,未分级,蓝色,102.2275,36.388056,23.0,0.0,75.0,,,"地震,降雨,人为因素",,0
632123000433,下营乡茶龙村二社不稳定斜坡（LD036）,青海省,海东市,乐都区,滑坡,小,黄色,102.110111,36.367556,197.0,58.0,15.0,,,"地震,降雨",,0
632123000441,瞿昙镇魏家村河口潜在崩塌（LD27),青海省,海东市,乐都区,崩塌,未分级,红色,102.381389,36.326111,35.0,8.0,120.0,,,"降雨,人为因素",,0
632123000444,瞿昙镇口子村红咀不稳定斜坡（LD17）,青海省,海东市,乐都区,滑坡,未分级,未定级,102.338611,36.351667,36.0,8.0,80.0,,,"地震,降雨,冻融,切坡",,0
632123000445,瞿昙镇口子村西侧潜在崩塌（LD20）,青海省,海东市,乐都区,崩塌,未分级,红色,102.333639,36.353333,35.0,7.0,150.0,,,"地震,降雨,人为因素",,0
632123000446,瞿昙镇隆国村潜在崩塌（LD23）,青海省,海东市,乐都区,崩塌,未分级,蓝色,102.356944,36.330278,40.0,12.0,170.0,,,"地震,降雨,人为因素",,0
632123000447,瞿昙镇中心村柳树庄潜在崩塌（LD24）,青海省,海东市,乐都区,崩塌,未分级,红色,102.362222,36.326111,24.0,6.0,80.0,,,"地震,降雨,人为因素",,0
632123000450,中岭乡梅家洼陈家岭不稳定斜坡（LD13）,青海省,海东市,乐都区,滑坡,小,未定级,102.506833,36.507167,20.0,0.0,55.0,,,"地震,降雨,人为因素",,0
632123000451,中岭乡中岭村阴寺顶不稳定斜坡（LD15）,青海省,海东市,乐都区,滑坡,小,未定级,102.511667,36.566389,38.0,10.0,90.0,,,"地震,降雨,人为因素",,0
632123000452,瞿昙镇大树村西南侧潜在崩塌（LD21）,青海省,海东市,乐都区,崩塌,未分级,未定级,102.325564,36.346128,30.0,6.0,110.0,,,"地震,降雨,人为因素",,0
632123000454,中岭乡马家洼不稳定斜坡（LD01）,青海省,海东市,乐都区,滑坡,小,红色,102.4975,36.5225,29.0,0.0,60.0,,,"地震,降雨,人为因素",,0
632123000464,中岭乡草场村贾英湾不稳定斜坡（LD07）,青海省,海东市,乐都区,滑坡,小,未定级,102.485972,36.54775,42.0,8.0,45.0,,,"地震,降雨,人为因素",,0
632123000470,中岭乡草场村北叉不稳定斜坡（LD06）,青海省,海东市,乐都区,滑坡,小,蓝色,102.485583,36.553917,39.0,9.0,90.0,,,"地震,降雨,人为因素",,0
632123000472,中岭乡大水泉长草洼不稳定斜坡（LD10）,青海省,海东市,乐都区,滑坡,小,未定级,102.515889,36.570833,74.0,18.0,115.0,,,"地震,降雨,人为因素",,0
632123000473,中岭乡铲铲洼岔沟顶不稳定斜坡（LD12）,青海省,海东市,乐都区,滑坡,小,未定级,102.518889,36.545556,50.0,12.0,100.0,,,"地震,降雨,人为因素",,0
632123000475,中岭乡铲铲洼村铲铲沟不稳定斜坡（LD11）,青海省,海东市,乐都区,滑坡,小,蓝色,102.515167,36.553056,44.0,0.0,85.0,,,"地震,降雨",,0
632123000477,中岭乡甘沟脑陈家湾湾不稳定斜坡（LD04）,青海省,海东市,乐都区,滑坡,小,未定级,102.499222,36.552556,25.0,0.0,90.0,,,"地震,降雨,人为因素",,0
632123000478,中岭乡甘沟脑大王顶不稳定斜坡（LD05）,青海省,海东市,乐都区,滑坡,小,未定级,102.499222,36.557833,20.0,6.0,65.0,,,"降雨,地震,人为因素",,0
632123000481,中岭乡业善洼不稳定斜坡（LD03）,青海省,海东市,乐都区,滑坡,小,未定级,102.502806,36.540028,89.0,21.0,210.0,,,"地震,降雨,人为因素",,0
632123000482,中岭乡业善洼村贺家洼不稳定斜坡（LD02）,青海省,海东市,乐都区,滑坡,小,红色,102.504167,36.536972,39.0,0.0,90.0,,,降雨,,0
632123000495,共和乡克什加村三社台台子潜在崩塌LD69,青海省,海东市,乐都区,崩塌,未分级,黄色,102.302167,36.613778,36.0,0.0,130.0,,,"地震,降雨,人为因素",,0
632123000505,共和乡桦林村三社上桦林潜在崩塌LD70,青海省,海东市,乐都区,崩塌,中,红色,102.321944,36.611,27.0,10.0,110.0,,,"地震,降雨,人为因素",,0
632123000506,共和乡拉科村东侧潜在崩塌LD74,青海省,海东市,乐都区,崩塌,未分级,未定级,102.3383,36.573753,19.0,0.0,65.0,,,"地震,降雨,人为因素",,0
632123000507,共和乡拉科村西侧潜在崩塌LD71,青海省,海东市,乐都区,崩塌,未分级,未定级,102.335694,36.573611,24.0,0.0,95.0,,,"地震,降雨,人为因素",,0
632123000513,达拉乡马圈沟村不稳定斜坡（LD042）,青海省,海东市,乐都区,滑坡,小,未定级,102.253331,36.620853,35.0,9.0,40.0,,,"地震,降雨",,0
632123000517,达拉乡袁家台小沟潜在崩塌LD62,青海省,海东市,乐都区,崩塌,未分级,红色,102.264569,36.609281,25.0,0.0,90.0,,,"地震,降雨,人为因素",,0
632123000518,达拉乡宁果村宁果社潜在崩塌LD60,青海省,海东市,乐都区,崩塌,未分级,红色,102.271972,36.611806,30.0,0.0,110.0,,,"地震,降雨,人为因素",,0
632123000526,达拉乡烂泥滩村二社下湾潜滑（LD02）,青海省,海东市,乐都区,滑坡,未分级,未定级,102.265278,36.610861,25.0,5.0,60.0,,,"地震,降雨,冻融,切坡",,0
632123000528,达拉乡前半沟不稳定斜坡（LD041）,青海省,海东市,乐都区,滑坡,小,蓝色,102.271833,36.594278,22.0,8.0,0.5,,,"地震,降雨",,0
632123000529,达拉乡大庄子村潜在崩塌LD61,青海省,海东市,乐都区,崩塌,未分级,红色,102.203778,36.608333,32.0,0.0,110.0,,,"地震,降雨,人为因素",,0
632123000531,高庙镇白崖子村二、八社河松沟口潜滑（LD06）,青海省,海东市,乐都区,滑坡,未分级,未定级,102.461667,36.507222,20.0,4.0,6.0,,,"地震,降雨,冻融,切坡",,0
632123000537,高店镇上杨家阳家社不稳定斜坡（LD043）,青海省,海东市,乐都区,滑坡,小,未定级,102.192667,36.507778,40.0,11.0,10.0,,,"地震,降雨",,0
632123000541,碾伯镇下寨村潜在崩塌（LD37）,青海省,海东市,乐都区,崩塌,未分级,未定级,102.458889,36.4725,21.0,5.0,50.0,,,"地震,降雨,人为因素",,0
632123000543,碾伯街道办苏家村三社山城潜滑（LD05）,青海省,海东市,乐都区,滑坡,未分级,未定级,102.388083,36.486111,25.0,5.0,80.0,,,"地震,降雨,冻融,切坡",,0
632123000548,瞿昙镇台沿村3社潜在崩塌(LD09),青海省,海东市,乐都区,崩塌,未分级,未定级,102.251678,36.2862,22.0,8.0,85.0,,,"地震,降雨,人为因素",,0
632123000549,瞿昙镇石坡村潜在崩塌(LD11),青海省,海东市,乐都区,崩塌,未分级,未定级,102.250281,36.289717,21.0,4.0,75.0,,,"降雨,人为因素",,0
632123000550,瞿昙镇药草台寺崩塌（LD16）,青海省,海东市,乐都区,崩塌,未分级,红色,102.244622,36.294919,35.0,7.0,100.0,,,"降雨,人为因素",,0
632123000551,瞿昙镇角营村潜在崩塌(LD14),青海省,海东市,乐都区,崩塌,未分级,未定级,102.26475,36.3175,20.0,5.0,70.0,,,"降雨,人为因素",,0
632123000554,瞿昙镇新联村瓦隆沟泥石流（LD31）,青海省,海东市,乐都区,泥石流,未分级,未定级,102.291111,36.351944,65.0,0.0,190.0,,,降雨,,0
632123000558,瞿昙镇河西村西侧斜坡（LD16）,青海省,海东市,乐都区,滑坡,小,红色,102.333922,36.368889,46.0,16.0,130.0,,,"地震,降雨,人为因素",,0
632123000560,瞿昙镇脑庄村2社不稳定斜坡（LD18）,青海省,海东市,乐都区,滑坡,小,未定级,102.312944,36.317583,37.0,9.0,85.0,,,"地震,降雨,人为因素",,0
632123000563,峰堆乡上帐房梅家台不稳定斜坡（LD35）,青海省,海东市,乐都区,滑坡,小,红色,102.235333,36.349917,5.0,2.0,20.0,,,"降雨,人为因素",,0
632123000564,峰堆乡下帐房拉子沟不稳定斜坡（LD33）,青海省,海东市,乐都区,滑坡,小,蓝色,102.252333,36.349758,46.0,11.0,150.0,,,"降雨,人为因素",,0
632123000567,峰堆乡刘家寺二社阳坡潜在崩塌LD65,青海省,海东市,乐都区,崩塌,未分级,黄色,102.290167,36.385556,35.0,0.0,150.0,,,"地震,降雨,人为因素",,0
632123000569,下营乡上营村黄家台台不稳定斜坡（LD038）,青海省,海东市,乐都区,滑坡,小,红色,102.151944,36.367997,14.0,7.0,10.0,,,"地震,降雨",,0
632123000578,峰堆乡红沟门一、二社不稳定斜坡（LD34）,青海省,海东市,乐都区,滑坡,小,未定级,102.313944,36.401619,44.0,10.0,100.0,,,"降雨,人为因素",,0
632123000581,城台乡坝口村一、二社潜在崩塌LD58,青海省,海东市,乐都区,崩塌,未分级,未定级,102.235278,36.394444,25.0,0.0,60.0,,,"地震,降雨,人为因素",,0
632123000586,李家乡公擦沟村二社檫腰湾潜在崩塌（LD45）,青海省,海东市,乐都区,崩塌,未分级,未定级,102.558333,36.553833,42.0,9.0,65.0,,,"地震,降雨,人为因素",,0
632123000594,高庙镇保家村杨家沟台台不稳定斜坡（LD30）,青海省,海东市,乐都区,滑坡,未分级,未定级,102.47,36.486333,37.0,9.0,90.0,,,"降雨,人为因素",,0
632123000596,高庙镇老庄村河东潜在崩塌LD67,青海省,海东市,乐都区,崩塌,未分级,蓝色,102.535444,36.489778,36.0,12.0,130.0,,,"地震,降雨,人为因素",,0
632123000599,高庙镇寺磨庄村二社脑子沟口潜滑（LD07）,青海省,海东市,乐都区,滑坡,未分级,未定级,102.465833,36.511389,36.0,5.0,70.0,,,"降雨,地震,切坡",,0
632123000601,寿乐镇李家台村滑坡（LD039）,青海省,海东市,乐都区,滑坡,小,未定级,102.398194,36.617361,163.0,41.0,5.0,,,"地震,降雨",,0
632123000611,李家乡阿塔岭村一社中湾潜滑（LD08）,青海省,海东市,乐都区,滑坡,未分级,未定级,102.549167,36.552778,28.0,5.0,60.0,,,"地震,降雨,切坡,地下采掘",,0
632123000612,李家乡烂泥沟村小湾潜在崩塌（LD47）,青海省,海东市,乐都区,崩塌,未分级,红色,102.540997,36.536214,40.0,12.0,70.0,,,"地震,人为因素,降雨",,0
632123000623,碾伯镇晁家村潜在崩塌（LD34）,青海省,海东市,乐都区,崩塌,未分级,未定级,102.383978,36.410214,60.0,0.0,120.0,,,"降雨,地震,人为因素",,0
632123000653,中岭乡吴家洼里外岗安不稳定斜坡（LD09）,青海省,海东市,乐都区,滑坡,小,未定级,102.480028,36.527444,78.0,22.0,200.0,,,"地震,人为因素,降雨",,0
632123000657,马营乡昆仑村一、二社斜坡潜在崩塌（LD50）,青海省,海东市,乐都区,崩塌,未分级,红色,102.619667,36.563611,80.0,20.0,130.0,,,"地震,降雨,人为因素",,0
632123000661,马营乡联丰村阳洼社潜在崩塌（LD49）,青海省,海东市,乐都区,崩塌,未分级,红色,102.632222,36.525333,40.0,10.0,2.46,,,"地震,降雨,人为因素",,0
632123000663,李家乡尕泉湾村1社（外湾）潜在崩塌（LD43）,青海省,海东市,乐都区,崩塌,未分级,红色,102.566944,36.533111,60.0,14.0,110.0,,,"地震,降雨,人为因素",,0
632123000665,洪水镇店子村山坡沟不稳定斜坡（LD50）,青海省,海东市,乐都区,滑坡,小,蓝色,102.553639,36.430806,40.0,0.0,300.0,,,"地震,降雨",,0
632123000668,李家乡大洼村5-6社（佛巷）潜在崩塌（LD44）,青海省,海东市,乐都区,崩塌,未分级,红色,102.546556,36.534528,54.0,13.0,95.0,,,"地震,降雨,人为因素",,0
632123000681,洪水镇吴家庄村二社吴家庄潜在滑坡（LD41）,青海省,海东市,乐都区,滑坡,未分级,蓝色,102.545556,36.402222,21.0,6.0,60.0,,,"地震,降雨,人为因素",,0
632123010151,乐都区下营乡卡金门村4社滑坡(潜滑）LD39,青海省,海东市,乐都区,滑坡,未分级,未定级,102.139897,36.396514,137.0,0.0,300.0,,,"地震,降雨,人为因素",,0
632123010152,瞿昙镇大树庄1、4社滑坡（潜滑）LD01,青海省,海东市,乐都区,滑坡,未分级,红色,102.325861,36.346167,198.0,43.0,450.0,,,"地震,降雨,人为因素",,0
632123010153,乐都区洪水镇下街村二、三社街巷滑坡(潜滑）LD33,青海省,海东市,乐都区,滑坡,未分级,未定级,102.638694,36.399639,46.0,0.0,130.0,,,"地震,降雨,人为因素",,0
632123010154,乐都区寿乐镇对巴子村2社滑坡（潜滑）LD36,青海省,海东市,乐都区,滑坡,未分级,未定级,102.350278,36.598528,153.0,0.0,340.0,,,"地震,降雨,人为因素",,0
632123010155,乐都区高庙镇寺磨庄村二社上街滑坡(潜滑）LD46,青海省,海东市,乐都区,滑坡,未分级,未定级,102.608639,36.466111,88.0,27.0,270.0,,,"地震,降雨,人为因素",,0
632123010156,乐都区李家乡和尔茨村3社滑坡(潜滑）LD47,青海省,海东市,乐都区,滑坡,未分级,未定级,102.559444,36.508056,192.0,43.0,400.0,,,"地震,降雨,人为因素",,0
632123010157,乐都区共和乡拉日村2、3社滑坡(潜滑）LD49,青海省,海东市,乐都区,滑坡,未分级,蓝色,102.314444,36.577111,136.0,36.0,300.0,,,"地震,降雨,人为因素",,0
632123010158,乐都区达拉乡春洒村1社滑坡(潜滑）LD50,青海省,海东市,乐都区,滑坡,未分级,未定级,102.295306,36.592333,141.0,30.0,300.0,,,"地震,降雨,人为因素",,0
632123010159,蒲台乡头庄村2社乱山滑坡LD11,青海省,海东市,乐都区,滑坡,未分级,未定级,102.425028,36.317028,114.0,0.0,260.0,,,"地震,降雨",,0
632123010160,蒲台乡郭家村1社滑坡LD16,青海省,海东市,乐都区,滑坡,未分级,蓝色,102.407783,36.313081,50.0,0.0,120.0,,,"地震,降雨",,0
632123010161,蒲台乡西沟村贾加咀滑坡LD17,青海省,海东市,乐都区,滑坡,未分级,蓝色,102.403908,36.308358,74.0,0.0,180.0,,,"地震,降雨",,0
632123010162,蒲台乡西沟村1社阳山滑坡LD18,青海省,海东市,乐都区,滑坡,未分级,未定级,102.416064,36.31925,38.0,0.0,80.0,,,"地震,降雨",,0
632123010163,蒲台乡黑窑洞滑坡LD19,青海省,海东市,乐都区,滑坡,未分级,未定级,102.408361,36.341314,365.0,0.0,450.0,,,"地震,降雨,人为因素",,0
632123010164,蒲台乡尹家村大寨湾滑坡LD20,青海省,海东市,乐都区,滑坡,未分级,蓝色,102.394742,36.343892,386.0,0.0,480.0,,,降雨,,0
632123010165,蒲台乡辛家庄村长吉台滑坡LD21,青海省,海东市,乐都区,滑坡,未分级,蓝色,102.445836,36.342222,42.0,0.0,120.0,,,"地震,降雨",,0
632123010166,蒲台乡赵宝湾村狼娃沟滑坡LD22,青海省,海东市,乐都区,滑坡,未分级,未定级,102.426125,36.383628,68.0,0.0,150.0,,,"地震,降雨",,0
632123010167,蒲台乡赵宝湾村赵家湾滑坡LD23,青海省,海东市,乐都区,滑坡,未分级,未定级,102.432517,36.374731,38.0,0.0,90.0,,,"地震,降雨",,0
632123010168,蒲台乡圈窝村时家滩滑坡LD24,青海省,海东市,乐都区,滑坡,未分级,黄色,102.425292,36.393897,42.0,0.0,90.0,,,"地震,降雨",,0
632123010169,蒲台乡圈窝村三分地滑坡LD25,青海省,海东市,乐都区,滑坡,未分级,蓝色,102.443197,36.401156,38.0,0.0,50.0,,,"地震,降雨",,0
632123010170,洪水镇石岭村一、四社大山滑坡LD29,青海省,海东市,乐都区,滑坡,未分级,蓝色,102.517583,36.350778,84.0,0.0,220.0,,,"地震,降雨,人为因素",,0
632123010171,洪水镇袁家庄村二、九社西山滑坡LD30,青海省,海东市,乐都区,滑坡,未分级,黄色,102.520056,36.360639,48.0,0.0,140.0,,,"地震,降雨,人为因素",,0
632123010172,乐都区洪水镇李家豪村三、四社虎山滑坡LD31,青海省,海东市,乐都区,滑坡,未分级,未定级,102.550667,36.413333,141.0,0.0,460.0,,,"地震,降雨,人为因素",,0
632123010173,乐都区峰堆乡上阳洼村三社簸箕山滑坡LD43,青海省,海东市,乐都区,滑坡,未分级,蓝色,102.226472,36.3535,33.0,0.0,60.0,,,"地震,降雨,人为因素",,0
632123010174,乐都区峰堆乡上阳洼村滑坡LD40,青海省,海东市,乐都区,滑坡,未分级,未定级,102.234389,36.361,35.0,0.0,100.0,,,"地震,降雨,人为因素",,0
632123010175,乐都区峰堆乡联村荣家滑坡LD41,青海省,海东市,乐都区,滑坡,未分级,蓝色,102.331861,36.425111,43.0,0.0,250.0,,,"地震,降雨,人为因素",,0
632123010176,乐都区峰堆乡联村一社空庄子滑坡LD42,青海省,海东市,乐都区,滑坡,未分级,未定级,102.330556,36.421222,43.0,0.0,100.0,,,"地震,降雨,人为因素",,0
632123010177,乐都区下营乡塔春村四社拉尕土磨滑坡LD37,青海省,海东市,乐都区,滑坡,未分级,蓝色,102.114111,36.377028,65.0,0.0,120.0,,,"地震,降雨,人为因素",,0
632123010178,乐都区下营乡祝家村二社台台滑坡LD38,青海省,海东市,乐都区,滑坡,未分级,蓝色,102.177917,36.443056,43.0,0.0,100.0,,,"地震,降雨,人为因素",,0
632123010179,瞿昙镇阴坡村加里坡滑坡LD09,青海省,海东市,乐都区,滑坡,未分级,黄色,102.378611,36.317222,158.0,0.0,400.0,,,"地震,降雨",,0
632123010180,瞿昙镇晁家村滑坡LD07,青海省,海东市,乐都区,滑坡,未分级,未定级,102.349292,36.350944,180.0,0.0,580.0,,,"地震,降雨",,0
632123010181,乐都区寿乐镇龙沟门村二社旧寺台滑坡LD35,青海省,海东市,乐都区,滑坡,未分级,未定级,102.368056,36.614444,135.0,0.0,350.0,,,"地震,降雨,人为因素",,0
632123010182,洪水镇大寨子村1、3社滑坡（潜滑）LD28,青海省,海东市,乐都区,滑坡,未分级,未定级,102.532331,36.373119,275.0,0.0,650.0,,,"地震,降雨,人为因素",,0
632123010183,乐都区雨润镇红坡村二社护坡滑坡LD48,青海省,海东市,乐都区,滑坡,未分级,未定级,102.268889,36.454333,96.0,24.0,320.0,,,"地震,降雨,人为因素",,0
632123010184,乐都区洪水镇下王家村四社大园子滑坡LD32,青海省,海东市,乐都区,滑坡,未分级,未定级,102.541833,36.409667,145.0,0.0,400.0,,,"地震,降雨,人为因素",,0
632123010185,蒲台乡下半沟1社下阳坡滑坡LD12,青海省,海东市,乐都区,滑坡,未分级,蓝色,102.420167,36.2925,310.0,0.0,680.0,,,"地震,降雨",,0
632123010186,蒲台乡上岭村1社滑坡LD13,青海省,海东市,乐都区,滑坡,未分级,蓝色,102.4149,36.279767,248.0,0.0,650.0,,,"地震,降雨",,0
632123010187,乐都区寿乐镇李家台村滑坡LD53,青海省,海东市,乐都区,滑坡,未分级,未定级,102.398333,36.6175,191.0,48.0,563.0,,,"地震,降雨,人为因素",,0
632123010188,瞿昙镇韩家村3、4社滑坡LD02,青海省,海东市,乐都区,滑坡,未分级,未定级,102.357128,36.337381,140.0,0.0,320.0,,,"地震,降雨",,0
632123010189,瞿昙镇车路村3、4社滑坡LD03,青海省,海东市,乐都区,滑坡,未分级,未定级,102.379853,36.311817,100.0,0.0,170.0,,,"地震,降雨",,0
632123010190,瞿昙镇段家村滑坡LD04,青海省,海东市,乐都区,滑坡,未分级,蓝色,102.387778,36.335,108.0,0.0,260.0,,,"地震,降雨",,0
632123010191,瞿昙镇段家村3社滑坡LD05,青海省,海东市,乐都区,滑坡,未分级,未定级,102.386722,36.341667,36.0,0.0,108.0,,,"地震,降雨",,0
632123010192,瞿昙镇周家村上泉台滑坡LD06,青海省,海东市,乐都区,滑坡,未分级,红色,102.381111,36.3525,34.0,0.0,260.0,,,"地震,降雨",,0
632123010193,瞿昙镇中庄村寺尔沟滑坡LD08,青海省,海东市,乐都区,滑坡,未分级,蓝色,102.365833,36.320833,72.0,0.0,200.0,,,"地震,人为因素,降雨",,0
632123010194,瞿昙镇周家村旧庄岭滑坡LD10,青海省,海东市,乐都区,滑坡,未分级,红色,102.379722,36.358611,113.0,0.0,450.0,,,"地震,降雨",,0
632123010195,蒲台乡新庄湾村郭家台滑坡LD14,青海省,海东市,乐都区,滑坡,未分级,蓝色,102.408897,36.292508,32.0,0.0,80.0,,,"地震,降雨",,0
632123010196,蒲台乡花庄村汉台滑坡LD15,青海省,海东市,乐都区,滑坡,未分级,黄色,102.434233,36.329033,97.0,0.0,270.0,,,"地震,降雨",,0
632123010197,蒲台乡新庄湾村中古斜坡滑坡LD26,青海省,海东市,乐都区,滑坡,未分级,蓝色,102.405008,36.292239,37.0,0.0,110.0,,,"地震,降雨,人为因素",,0
632123010198,蒲台乡小甘沟村避乃头滑坡LD27,青海省,海东市,乐都区,滑坡,未分级,未定级,102.418889,36.365833,63.0,0.0,80.0,,,"地震,降雨,人为因素",,0
632123010199,碾伯镇晁家村晁家4、5社滑坡LD45,青海省,海东市,乐都区,滑坡,未分级,未定级,102.382564,36.417194,96.0,0.0,250.0,,,"降雨,人为因素,地震",,0
632123010200,乐都区寿乐镇杨家山村弯弯子滑坡（潜滑）LD51,青海省,海东市,乐都区,滑坡,未分级,蓝色,102.364361,36.57175,123.0,32.0,320.0,,,"地震,人为因素,降雨",,0
632123010201,乐都区寿乐镇白崖滑坡（潜滑）LD52,青海省,海东市,乐都区,滑坡,未分级,未定级,102.479444,36.568056,91.0,29.0,290.0,,,"降雨,人为因素,地震",,0
632123010216,蒲台乡候白家村潜在滑坡(LD08),青海省,海东市,乐都区,滑坡,未分级,黄色,102.501797,36.395611,56.0,0.0,210.0,,,"降雨,地震,人为因素",,0
632123010229,蒲台乡小甘沟村碱滩滑坡（LD07）,青海省,海东市,乐都区,滑坡,未分级,蓝色,102.400906,36.357031,45.0,0.0,145.0,,,"地震,降雨,人为因素",,0
632123010230,蒲台乡西沟村介沟滑坡(LD04),青海省,海东市,乐都区,滑坡,未分级,黄色,102.407417,36.311167,35.0,0.0,90.0,,,"地震,降雨,人为因素",,0
